,url,name,address,provider,MW_total_power,miles_to_nearest_airport,sqft_colocation_space,sqft_total_space,number,street,municipality,state,latitude,longitude
1,https://datacenters.com/equinix-dc2-ashburn,Equinix: DC2 Ashburn Data Center,"21715 Filigree Court, Ashburn, VA, USA",Equinix,4.9,4.35,118447.0,147600.0,21715,Filigree Court,Ashburn,VA,39.0163313,-77.45876232933266
2,https://datacenters.com/google-mayes-county-ok,"Google: Mayes County, OK Data Center",4111 North East 1st Street,Google,,34.8,,1400000.0,4111,North East 1st Street,,,34.16316830266114,-97.42482656719649
3,https://datacenters.com/equinix-ny4-secaucus,Equinix: NY4 Secaucus Data Center,"755 Secaucus Road, Secaucus, NJ, USA",Equinix,18.5,7.46,151772.0,338967.0,755,Secaucus Road,Secaucus,NJ,40.77642805000001,-74.06977591147162
4,https://datacenters.com/microsoft-azure-des-moines,Microsoft Azure: Des Moines Data Center,"550 White Crane Rd, West Des Moines, IA 50265, USA",Microsoft Azure,,2.49,,408000.0,550,White Crane Rd,West Des Moines,IA,41.51497801102546,-93.71009936181576
6,https://datacenters.com/microsoft-azure-east-us-2-virginia,Microsoft Azure: East US 2 - Virginia,"Boydton, VA, USA",Microsoft Azure,,174.61,,,,Boydton,VA,,36.6673066,-78.3882002
7,https://datacenters.com/qts-richmond,QTS Data Centers: Richmond Data Center,"6000 Technology Boulevard, Sandston, VA, USA",QTS Data Centers,105.0,4.29,600000.0,1300000.0,6000,Technology Boulevard,Sandston,VA,37.4888273,-77.24748997136237
9,https://datacenters.com/google-midlothian-tx,"Google: Midlothian, TX Data Center","3800 Railport Pkwy, Midlothian, TX, USA",Google,,31.07,,800000.0,3800,Railport Pkwy,Midlothian,TX,32.44324265,-97.04880499999999
10,https://datacenters.com/microsoft-azure-south-central-us-texas,Microsoft Azure: South Central US-Texas,"5150 Rogers Rd, San Antonio, TX, USA",Microsoft Azure,,13.68,,470000.0,5150,Rogers Rd,San Antonio,TX,29.4798727,-98.69275447677299
11,https://datacenters.com/equinix-mi1-miami,Equinix: MI1 Miami Data Center,"50 Northeast 9th Street, Miami, FL, USA",Equinix,17.45,5.6,255512.0,658528.0,50,Northeast 9th Street,Miami,FL,25.7825762,-80.1927703
12,https://datacenters.com/microsoft-azure-north-central-us-illinois,Microsoft Azure: North Central US-Illinois,"601 Northwest Avenue, Northlake, IL, USA",Microsoft Azure,,15.5,,700000.0,601,Northwest Avenue,Northlake,IL,41.92310615,-87.91826328939885
13,https://datacenters.com/apple-inc-maiden,Apple Inc.: Maiden Data Center,"5977 Startown Road, Newton, NC, USA",Apple Inc.,,30.45,184000.0,500000.0,5977,Startown Road,Newton,NC,35.64298676620549,-81.2692989907583
16,https://datacenters.com/google-montgomery-county-tn,"Google: Montgomery County, TN Data Center","1000 Boolean Dr, Clarksville, TN 37040, USA",Google,,260.98,,,1000,Boolean Dr,Clarksville,TN,36.6199067,-87.26407905385179
17,https://datacenters.com/google-the-dalles-or,"Google: The Dalles, OR Data Center","4200 Columbia Rd, The Dalles, OR 97058, USA",Google,,136.09,800000.0,1300000.0,4200,Columbia Rd,The Dalles,OR,45.632333801763764,-121.20507597573058
18,https://datacenters.com/switch-switch-keep,Switch Data Centers: Switch Data Centers: Keep Data Center,"1 Switch Way, Lithia Springs, GA, USA",Switch Data Centers: Switch Data Centers,110.0,11.81,,1000000.0,1,Switch Way,Lithia Springs,GA,33.75502515,-84.58726849549521
20,https://datacenters.com/oracle-us-east-us-ashburn-1,Oracle: US East us-ashburn-1,"Ashburn, VA, USA",Oracle,,6.84,,,,Ashburn,VA,,39.029784,-77.4744147959966
21,https://datacenters.com/equinix-ny5-secaucus,Equinix: NY5 Secaucus Data Center,"800 Secaucus Road, Secaucus, NJ, USA",Equinix,10.0,7.46,108005.0,275322.0,800,Secaucus Road,Secaucus,NJ,40.77862955,-74.07229969299424
22,https://datacenters.com/equinix-ch3-elk-grove,Equinix: CH3 Elk Grove Data Center,"1905 Lunt Avenue, Elk Grove Village, IL, USA",Equinix,10.8,2.49,133987.0,379662.0,1905,Lunt Avenue,Elk Grove Village,IL,42.00107525,-87.95526507465392
23,https://datacenters.com/qts-phoenix,QTS Data Centers: Phoenix Data Center,"1200 North 40th Street, Phoenix, Arizona 85008, USA",QTS Data Centers,,1.25,108000.0,108000.0,1200,North 40th Street,Phoenix,Arizona,33.4623278989899,-111.9951634949495
26,https://datacenters.com/amazon-aws-iad23-ashburn,Amazon AWS: IAD23 Ashburn,"43830 Devin Shafron Dr, Ashburn, VA 20147, USA",Amazon AWS,,4.35,,,43830,Devin Shafron Dr,Ashburn,VA,39.00433355,-77.48434988769773
27,https://datacenters.com/apple-inc-mesa,Apple Inc.: Mesa Data Center,"3740 South Signal Butte Road, Mesa, AZ, USA",Apple Inc.,,23.0,,1300000.0,3740,South Signal Butte Road,Mesa,AZ,33.346856450000004,-111.60398881408415
28,https://datacenters.com/facebook-los-lunas,"Meta, Inc.: Los Lunas Data Center","4250 Messenger Loop, Los Lunas, NM, USA","Meta, Inc.",,17.4,,400000.0,4250,Messenger Loop,Los Lunas,NM,34.830164499999995,-106.78382668671136
29,https://datacenters.com/google-papillion-ne,"Google: Papillion, NE Data Center","14706 Schram Road, Papillion, NE 68138, USA",Google,,16.78,,,14706,Schram Road,Papillion,NE,41.13257763265306,-96.1444596122449
30,https://datacenters.com/equinix-ny2-secaucus,Equinix: NY2 Secaucus Data Center,"275 Hartz Way, Secaucus, NJ, USA",Equinix,6.8,7.46,131037.0,183900.0,275,Hartz Way,Secaucus,NJ,40.777582249999995,-74.07594031554937
35,https://datacenters.com/apple-inc-prineville,Apple Inc.: Prineville Data Center,"1600 SW Baldwin Rd, Prineville, OR 97754, USA",Apple Inc.,,229.29,,3200000.0,1600,SW Baldwin Rd,Prineville,OR,44.277024313049786,-120.87703841891403
36,https://datacenters.com/google-new-albany-oh,"Google: New Albany, OH Data Center","1101 Beech Rd SW, New Albany, OH, USA",Google,,7.46,,275000.0,1101,Beech Rd SW,New Albany,OH,40.070051,-82.754042
37,https://datacenters.com/google-lenoir-nc,"Google: Lenoir, NC Data Center",708 Lynhaven Drive,Google,,101.9,,337000.0,708,Lynhaven Drive,,,35.23764143509064,-81.20556084895078
38,https://datacenters.com/cyrusone-nym1-somerset,CyrusOne: NYM1 Somerset Data Center,"800 Cottontail Lane, Somerset, NJ, USA",CyrusOne,40.0,21.75,185000.0,430000.0,800,Cottontail Lane,Somerset,NJ,40.53901490871647,-74.54806380531525
39,https://datacenters.com/oracle-us-west-us-phoenix-1,Oracle: US West us-phoenix-1,"Phoenix, AZ, USA",Oracle,,4.35,,,,Phoenix,AZ,,33.4484367,-112.074141
40,https://datacenters.com/qts-atlanta-1-dc1,QTS Data Centers: Atlanta 1 DC1 Data Center,"1033 Jefferson Street Northwest, Atlanta, GA, USA",QTS Data Centers,70.0,9.33,531000.0,990000.0,1033,Jefferson Street Northwest,Atlanta,GA,33.77834525,-84.42109086212253
42,https://datacenters.com/qts-chicago,QTS Data Centers: Chicago Data Center,"2800 South Ashland Avenue, Chicago, Illinois 60608, USA",QTS Data Centers,40.0,14.92,208000.0,467000.0,2800,South Ashland Avenue,Chicago,Illinois,41.842207599999995,-87.66896957496199
43,https://datacenters.com/apple-inc-reno,Apple Inc.: Reno Data Center,"21505 Technology Way, Reno, NV 89521, USA",Apple Inc.,,3.11,,1100000.0,21505,Technology Way,Reno,NV,39.4548195014176,-119.75492894772928
45,https://datacenters.com/amazon-aws-new-albany-innovation-campus-way,Amazon AWS: New Albany Innovation Campus Way,"Innovation Campus Way, New Albany, OH 43031, USA",Amazon AWS,,9.95,,,,Innovation Campus Way,New Albany,OH,40.088439825289235,-82.73012218446259
46,https://datacenters.com/microsoft-azure-west-us-3-arizona,Microsoft Azure: West US 3-Arizona,"12901 West Olive Avenue, El Mirage, AZ 85335, USA",Microsoft Azure,,21.13,,244666.0,12901,West Olive Avenue,El Mirage,AZ,33.565487088235294,-112.3375524117647
48,https://datacenters.com/iron-mountain-azp-1-phoenix,Iron Mountain Data Centers: AZP - 1 - Phoenix Data Center,"615 North 48th Street, Phoenix, AZ, USA",Iron Mountain Data Centers,41.0,1.25,,588669.0,615,North 48th Street,Phoenix,AZ,33.4547001,-111.97624000293213
49,https://datacenters.com/databank-dfw3-plano,DataBank: DFW3 - Plano Data Center,"8375 Dominion Pkwy, Plano, TX, USA",DataBank,13.5,18.02,72600.0,144000.0,8375,Dominion Pkwy,Plano,TX,33.085227685975575,-96.81243463687383
51,https://datacenters.com/amazon-aws-5113-hayden-run,Amazon AWS: 5113 Hayden Run,"5113 Hayden Run Rd, Hilliard, OH 43026, USA",Amazon AWS,,13.68,,154000.0,5113,Hayden Run Rd,Hilliard,OH,40.06182978685651,-83.13857184313851
55,https://datacenters.com/telefonica-global-solutions-miami-keycenter,Telefonica Global Solutions: Miami KeyCenter,11300 Northwest 25th Street,Telefonica Global Solutions,12.0,5.0,44000.0,173500.0,11300,Northwest 25th Street,,,25.79617075,-80.37981073067186
56,https://datacenters.com/amazon-aws-pdx80-hermiston-or,Amazon AWS: PDX80 Hermiston OR,"Hermiston, OR 97838, USA",Amazon AWS,,180.2,,217900.0,,Hermiston,OR 97838,,45.8404101,-119.28946
57,https://datacenters.com/amazon-aws-dublin-oh,Amazon AWS: Dublin OH,"5895 Houchard Road, Dublin, OH, USA",Amazon AWS,35.0,17.4,,310000.0,5895,Houchard Road,Dublin,OH,40.090437313529456,-83.20011722976207
58,https://datacenters.com/equinix-sv1-san-jose,Equinix: SV1 San Jose Data Center,"11 Great Oaks Boulevard, San Jose, CA, USA",Equinix,4.0,41.64,82851.0,133500.0,11,Great Oaks Boulevard,San Jose,CA,37.24160355,-121.78331850529646
60,https://datacenters.com/qts-piscataway,QTS Data Centers: Piscataway Data Center,"101 Possumtown Road, Piscataway Township, New Jersey 08854, USA",QTS Data Centers,52.0,18.02,176000.0,360000.0,101,Possumtown Road,Piscataway Township,New Jersey,40.5574623,-74.48445497022735
61,https://datacenters.com/phoenixnap-phoenix,PhoenixNAP: Phoenix Data Center,"3402 East University Drive, Phoenix, AZ, USA",PhoenixNAP,,1.25,90000.0,,3402,East University Drive,Phoenix,AZ,33.41607765,-112.00935996881752
62,https://datacenters.com/equinix-dc6-ashburn,Equinix: DC6 Ashburn Data Center,"21721 Filigree Court, Ashburn, VA, USA",Equinix,7.5,4.35,59370.0,148659.0,21721,Filigree Court,Ashburn,VA,39.0149639,-77.45878957525659
63,https://datacenters.com/equinix-dc3-ashburn,Equinix: DC3 Ashburn Data Center,"44470 Chilum Place, Ashburn, VA, USA",Equinix,5.5,4.98,67041.0,95444.0,44470,Chilum Place,Ashburn,VA,39.0220753,-77.46078439252335
64,https://datacenters.com/facebook-sarpy-nebraska,"Meta, Inc.: Sarpy Nebraska Data Center","S 144th St, Springfield, NE, USA","Meta, Inc.",,19.27,,26000000.0,,S 144th St,Springfield,NE,41.11071791738093,-96.13865612384615
65,https://datacenters.com/equinix-ch1-chicago,Equinix: CH1 Chicago Data Center,"350 East Cermak Road, Chicago, IL, USA",Equinix,6.0,16.78,50992.0,143630.0,350,East Cermak Road,Chicago,IL,41.85375365,-87.6183797609595
67,https://datacenters.com/centersquare-phoenix-phx1-mesa,Centersquare: Phoenix ( PHX1 - Mesa) Data Center,"1301 West University Drive, Mesa, AZ, USA",Centersquare,14.0,8.08,73500.0,154158.0,1301,West University Drive,Mesa,AZ,33.4212556,-111.85900104986746
68,https://datacenters.com/centersquare-chicago-ch1-lisle,Centersquare: Chicago (CH1-Lisle) Data Center,"4513 Western Ave, Lisle, Illinois, USA",Centersquare,15.0,15.54,99650.0,190057.0,4513,Western Ave,Lisle,Illinois,41.8023406,-88.09488559911235
69,https://datacenters.com/equinix-sv5-san-jose,Equinix: SV5 San Jose Data Center,"9 Great Oaks Boulevard, San Jose, CA, USA",Equinix,15.0,41.64,93498.0,175311.0,9,Great Oaks Boulevard,San Jose,CA,37.24189425,-121.78159761972707
70,https://datacenters.com/google-council-bluffs-ia,"Google: Council Bluffs, IA Data Center","1430 Veterans Memorial Hwy, Council Bluffs, IA 51501, USA",Google,,5.6,,2890000.0,1430,Veterans Memorial Hwy,Council Bluffs,IA,41.219787310543765,-95.86669189476514
71,https://datacenters.com/cyrusone-cin5-cincinnati-north-cincinnati,CyrusOne: CIN5 Cincinnati North Cincinnati Data Center,"401 Kingsview Drive, Lebanon, OH, USA",CyrusOne,14.0,262.84,95000.0,400000.0,401,Kingsview Drive,Lebanon,OH,39.39004085714286,-84.21535134693877
72,https://datacenters.com/digital-realty-dallas-dfw11,Digital Realty: Dallas DFW11 Data Center,"4025 Midway Road, Carrollton, TX, USA",Digital Realty,10.0,13.7,100000.0,100590.0,4025,Midway Road,Carrollton,TX,33.0213677755102,-96.843649
74,https://datacenters.com/cyrusone-dfw1-dallas-carrollton,CyrusOne: DFW1 Dallas Carrollton Data Center,"1649 West Frankford Road, Carrollton, TX, USA",CyrusOne,90.0,8.7,400000.0,670000.0,1649,West Frankford Road,Carrollton,TX,32.9930675,-96.9320286
75,https://datacenters.com/equinix-ny9-new-york,Equinix: NY9 New York Data Center,"111 8th Avenue, New York, NY, USA",Equinix,1.7,6.84,35894.0,55721.0,111,8th Avenue,New York,NY,40.7408812,-74.0020865
76,https://datacenters.com/equinix-dc4-ashburn,Equinix: DC4 Ashburn Data Center,"21691 Filigree Court, Ashburn, VA, USA",Equinix,6.8,4.35,60587.0,99969.0,21691,Filigree Court,Ashburn,VA,39.01631515,-77.46190270161111
77,https://datacenters.com/prime-prime-los-angeles-4701-s-santa-fe,Prime Data Centers: Prime Los Angeles - 4701 S. Santa Fe,"4701 South Santa Fe Avenue, Vernon, CA, USA",Prime Data Centers,33.0,10.57,110310.0,242495.0,4701,South Santa Fe Avenue,Vernon,CA,34.001433522333365,-118.23030915642762
78,https://datacenters.com/equinix-sv10-san-jose,Equinix: SV10 San Jose Data Center,"7 Great Oaks Boulevard, San Jose, CA, USA",Equinix,14.4,41.64,37231.0,175930.0,7,Great Oaks Boulevard,San Jose,CA,37.241188949999994,-121.7847548396787
79,https://datacenters.com/equinix-la4-el-segundo,Equinix: LA4 El Segundo Data Center,"445 North Douglas Street, El Segundo, CA, USA",Equinix,0.5,1.87,62159.0,177469.0,445,North Douglas Street,El Segundo,CA,33.921997876884426,-118.383118
80,https://datacenters.com/amazon-aws-2305-mission-college-blvd,Amazon AWS: 2305 Mission College Blvd,"2305 Mission College Blvd, Santa Clara, CA 95054, USA",Amazon AWS,,2.49,,35800.0,2305,Mission College Blvd,Santa Clara,CA,37.38872309507468,-121.9668334293932
82,https://datacenters.com/centersquare-dallas-da1-allen,Centersquare: Dallas (DA1-Allen) Data Center,"900 Guardians Way, Allen, TX, USA",Centersquare,12.0,24.24,77124.0,112292.0,900,Guardians Way,Allen,TX,33.0951879,-96.68356465653412
83,https://datacenters.com/equinix-ny11-carteret,Equinix: NY11 Carteret Data Center,"1400 Federal Boulevard, Carteret, NJ, USA",Equinix,,8.08,91413.0,113944.0,1400,Federal Boulevard,Carteret,NJ,40.58451035,-74.24333784314689
88,https://datacenters.com/microsoft-azure-west-us-california,Microsoft Azure: West US-California,"Fresno, CA, USA",Microsoft Azure,,4.35,,,,Fresno,CA,,36.7394421,-119.78483
89,https://datacenters.com/amazon-aws-pdx2-umatilla,Amazon AWS: PDX2 Umatilla,"2400 Beach Access Road, Umatilla, OR 97882, USA",Amazon AWS,,178.96,,,2400,Beach Access Road,Umatilla,OR,45.9288760244058,-119.26944264255893
91,https://datacenters.com/dsm-lakeland,DSM: Lakeland Data Center,"6810 New Tampa Hwy, Lakeland, FL, USA",DSM,,55.93,25000.0,25000.0,6810,New Tampa Hwy,Lakeland,FL,28.030004459183672,-82.04538540816327
92,https://datacenters.com/telehouse-new-york-teleport,Telehouse: New York Teleport Data Center,"7 Teleport Drive, Staten Island, NY, USA",Telehouse,10.0,6.22,80000.0,162000.0,7,Teleport Drive,Staten Island,NY,40.60454853443792,-74.17789856456419
93,https://datacenters.com/amazon-aws-hilliard-5109-hayden-run,Amazon AWS: Hilliard 5109 Hayden Run,"5109 Hayden Run Rd, Hilliard, OH 43026, USA",Amazon AWS,,13.68,,,5109,Hayden Run Rd,Hilliard,OH,40.061855524571,-83.13842356209233
94,https://datacenters.com/amazon-aws-iad12-sterling,Amazon AWS: IAD12 Sterling,"22630 Dulles Summit Court, Sterling, VA, USA",Amazon AWS,,2.49,,150000.0,22630,Dulles Summit Court,Sterling,VA,38.98872415,-77.4476618513777
95,https://datacenters.com/amazon-aws-7400-potranco-rd,Amazon AWS: 7400 Potranco Rd,"7400 Potranco Rd, San Antonio, TX 78251, USA",Amazon AWS,12.0,11.19,,109600.0,7400,Potranco Rd,San Antonio,TX,29.4532,-98.6371074
96,https://datacenters.com/equinix-da1-dallas,Equinix: DA1 Dallas Data Center,"1950 North Stemmons Freeway, Dallas, TX, USA",Equinix,3.0,7.46,30355.0,61573.0,1950,North Stemmons Freeway,Dallas,TX,32.800965950000005,-96.81952300449768
97,https://datacenters.com/centersquare-ord2-chicago-elk-grove-village-campus,Centersquare: ORD2 (Chicago) Elk Grove Village Data Center Campus,"2425 Busse Road, Elk Grove Village, IL, USA",Centersquare,11.6,2.49,148000.0,163747.0,2425,Busse Road,Elk Grove Village,IL,41.99231745,-87.95823232669878
98,https://datacenters.com/vantage-az1-phoenix,Vantage Data Centers: AZ1 Phoenix Data Center,"45 South Bullard Avenue, Goodyear, AZ, USA",Vantage Data Centers,32.0,21.13,800000.0,800000.0,45,South Bullard Avenue,Goodyear,AZ,33.446455650000004,-112.373884470172
99,https://datacenters.com/equinix-at1-atlanta-ibx,Equinix: AT1 Atlanta IBX Data Center,"180 Peachtree Street Northwest, Atlanta, GA, USA",Equinix,4.5,8.7,43012.0,79200.0,180,Peachtree Street Northwest,Atlanta,GA,33.758551,-84.387703
100,https://datacenters.com/centersquare-secaucus-nyc3,Centersquare: Secaucus (NYC3) Data Center,"15 Enterprise Avenue North, Secaucus, NJ, USA",Centersquare,12.0,8.7,98600.0,154691.0,15,Enterprise Avenue North,Secaucus,NJ,40.78765239836318,-74.0670876535633
102,https://datacenters.com/expedient-indianapolis-carmel,Expedient: Indianapolis Carmel Data Center,"701 Congressional Blvd, Carmel, IN, USA",Expedient,4.4,18.65,26000.0,53000.0,701,Congressional Blvd,Carmel,IN,39.96118928333333,-86.14763138333333
103,https://datacenters.com/facebook-fort-worth,"Meta, Inc.: Fort Worth Data Center","4500 Like Way, Fort Worth, Texas 76177, USA","Meta, Inc.",,14.3,,22000000.0,4500,Like Way,Fort Worth,Texas,32.983782899999994,-97.26111316489428
104,https://datacenters.com/equinix-da11-dallas-ibx,Equinix: DA11 Dallas IBX Data Center,"1990 North Stemmons Freeway, Dallas, TX 75207, U.S.",Equinix,,13.68,,144560.0,1990,North Stemmons Freeway,Dallas,TX,32.801719620740656,-96.82431674165359
105,https://datacenters.com/qts-east-windsor-nj,"QTS Data Centers: East Windsor, NJ Data Center","159 Princeton Hightstown Road, East Windsor, New Jersey 08520, USA",QTS Data Centers,12.0,34.18,58157.0,553930.0,159,Princeton Hightstown Road,East Windsor,New Jersey,40.277733714868525,-74.54780027480199
106,https://datacenters.com/dsm-phoenix,DSM: Phoenix Data Center,"Phoenix, Arizona, USA",DSM,,4.35,,,,Phoenix,Arizona,,33.4484367,-112.074141
107,https://datacenters.com/cyrusone-nym5-norwalk,CyrusOne: NYM5 Norwalk Data Center,"6 Norden Place, Norwalk, CT, USA",CyrusOne,16.0,37.91,75000.0,168000.0,6,Norden Place,Norwalk,CT,41.110988645461,-73.39827035947773
108,https://datacenters.com/centersquare-dallas-da2-webb-chapel,Centersquare: Dallas (DA2-Webb Chapel) Data Center,"11830 Webb Chapel Rd, Dallas, TX, USA",Centersquare,10.0,9.33,92320.0,140453.0,11830,Webb Chapel Rd,Dallas,TX,32.911956,-96.87065706681486
109,https://datacenters.com/equinix-dc11-ashburn,Equinix: DC11 Ashburn Data Center,"21721 Filigree Court, Ashburn, VA, USA",Equinix,4.9,4.35,116835.0,229435.0,21721,Filigree Court,Ashburn,VA,39.0149639,-77.45878957525659
110,https://datacenters.com/qts-irving-dallas-dc1-dc2,QTS Data Centers: Irving - Dallas DC1 & DC2 Data Center,"6431 Longhorn Dr, Irving, TX, USA",QTS Data Centers,75.2,3.11,320932.0,700000.0,6431,Longhorn Dr,Irving,TX,32.897271200000006,-96.9830171521263
111,https://datacenters.com/amazon-aws-iad55-haymarket,Amazon AWS: IAD55 Haymarket,"15395 John Marshall Hwy, Haymarket, VA 20169, USA",Amazon AWS,50.0,13.68,,236082.0,15395,John Marshall Hwy,Haymarket,VA,38.8148784,-77.64888000389527
112,https://datacenters.com/qts-suwanee-1,QTS Data Centers: Suwanee Data Center 1,"300 Satellite Boulevard, Suwanee, Georgia 30024, USA",QTS Data Centers,26.0,34.18,205000.0,385000.0,300,Satellite Boulevard,Suwanee,Georgia,34.035266699999994,-84.06130781229422
113,https://datacenters.com/amazon-aws-iad60-ashburn,Amazon AWS: IAD60 Ashburn,"21267 Smith Switch Road, Ashburn, VA, USA",Amazon AWS,,5.6,,109997.0,21267,Smith Switch Road,Ashburn,VA,39.0287737,-77.4582461
114,https://datacenters.com/digital-realty-dallas-dfw10,Digital Realty: Dallas DFW10 Data Center,"2323 Bryan Street, Dallas, TX, USA",Digital Realty,24.0,15.5,447107.0,454000.0,2323,Bryan Street,Dallas,TX,32.78697608163265,-96.79400534693877
115,https://datacenters.com/equinix-sv4-sunnyvale,Equinix: SV4 Sunnyvale Data Center,"255 Caspian Drive, Sunnyvale, CA, USA",Equinix,8.0,5.6,67622.0,120000.0,255,Caspian Drive,Sunnyvale,CA,37.41460445,-122.01455581751013
116,https://datacenters.com/cologix-nnj3-new-jersey,Cologix: NNJ3 New Jersey Data Center,"200 Webro Road, Parsippany, NJ, USA",Cologix,,16.78,120000.0,120000.0,200,Webro Road,Parsippany,NJ,40.85700465,-74.4188289900982
117,https://datacenters.com/centersquare-lax3-los-angeles-irvine-campus,Centersquare: LAX3 (Los Angeles) Irvine Data Center Campus,"17836 Gillette Avenue, Irvine, CA, USA",Centersquare,12.0,1.25,51103.0,132000.0,17836,Gillette Avenue,Irvine,CA,33.68709305,-117.84797687554038
119,https://datacenters.com/aligned-energy-ord-02-chicago,Aligned Data Centers: ORD-02 Chicago,"501 Northwest Avenue, Northlake, IL, USA",Aligned Data Centers,36.0,4.35,,228768.0,501,Northwest Avenue,Northlake,IL,41.9188164182653,-87.91923094111608
120,https://datacenters.com/stack-infrastructure-dfw01-dallas,Stack Infrastructure: DFW01 Dallas Data Center,"6653 Pinecrest Drive, Plano, TX, USA",Stack Infrastructure,82.0,17.4,247000.0,294000.0,6653,Pinecrest Drive,Plano,TX,33.062825797055936,-96.80951843575787
121,https://datacenters.com/qts-ashburn-shellhorn-ash3-1,QTS Data Centers: Ashburn-Shellhorn ASH3 Data Center 1,"22291 Shellhorn Road, Ashburn, Virginia 20147, USA",QTS Data Centers,42.0,3.73,195000.0,304934.0,22291,Shellhorn Road,Ashburn,Virginia,39.02040604668148,-77.49836920060885
124,https://datacenters.com/equinix-se4-kent,Equinix: SE4 Kent Data Center,"6906 S 204th St, Kent, WA, USA",Equinix,12.0,3.11,75000.0,108336.0,6906,S 204th St,Kent,WA,47.421525149999994,-122.24739250085904
127,https://datacenters.com/iron-mountain-azp-3-phoenix,Iron Mountain Data Centers: AZP - 3 - Phoenix Data Center,"4802 East Van Buren Street, Phoenix, AZ, USA",Iron Mountain Data Centers,36.0,1.25,,230000.0,4802,East Van Buren Street,Phoenix,AZ,33.451711,-111.97729071042008
128,https://datacenters.com/centersquare-tpa1-tampa-campus,Centersquare: TPA1 Tampa Data Center Campus,"9310 Florida Palm Drive, Tampa, FL, USA",Centersquare,9.6,11.19,96000.0,96000.0,9310,Florida Palm Drive,Tampa,FL,27.94553095,-82.35110076559798
129,https://datacenters.com/equinix-at4-atlanta,Equinix: AT4 Atlanta Data Center,"450 Interstate North Parkway, Atlanta, GA, USA",Equinix,12.0,17.4,66774.0,87971.0,450,Interstate North Parkway,Atlanta,GA,33.89547465,-84.45351661008468
130,https://datacenters.com/flexential-dallas-richardson,Flexential: Dallas - Richardson Data Center,"3010 Waterview Pkwy, Richardson, TX 75080, USA",Flexential,3.75,17.4,50851.0,100807.0,3010,Waterview Pkwy,Richardson,TX,32.9948016,-96.75251420979546
134,https://datacenters.com/us-signal-grand-rapids-east,US Signal: Grand Rapids East Data Center,"4765 Barden Drive Southeast, Kentwood, MI, USA",US Signal,,1.87,40000.0,,4765,Barden Drive Southeast,Kentwood,MI,42.87535466627512,-85.562772435341
135,https://datacenters.com/365-tx1-richardson,365 Data Centers: TX1 Richardson Data Center,"1001 East Campbell Road, Richardson, TX, USA",365 Data Centers,6.2,19.89,36729.0,75119.0,1001,East Campbell Road,Richardson,TX,32.97515717346939,-96.70764578571428
136,https://datacenters.com/equinix-dc10-ashburn,Equinix: DC10 Ashburn Data Center,"21551 Beaumeade Circle, Ashburn, VA, USA",Equinix,,4.98,84829.0,152392.0,21551,Beaumeade Circle,Ashburn,VA,39.02101975,-77.45151658024605
137,https://datacenters.com/qts-hillsboro-1,QTS Data Centers: Hillsboro 1 Data Center,"4951 Northeast Huffman Street, Hillsboro, OR, USA",QTS Data Centers,24.0,16.16,85000.0,158000.0,4951,Northeast Huffman Street,Hillsboro,OR,45.55686749747459,-122.93266432306565
138,https://datacenters.com/amazon-aws-ale061,Amazon AWS: ALE061,"Chive Dr, San Antonio, TX 78223, USA",Amazon AWS,,16.16,,,,Chive Dr,San Antonio,TX,29.301469480360677,-98.3912200783111
139,https://datacenters.com/flexential-minneapolis-chaska,Flexential: Minneapolis - Chaska Data Center,"3500 Lyman Blvd, Chaska, MN 55318, USA",Flexential,9.0,18.65,70000.0,160838.0,3500,Lyman Blvd,Chaska,MN,44.85159645,-93.59884547259331
140,https://datacenters.com/qts-overland-park-kansas-city,QTS Data Centers: Overland Park - Kansas City Data Center,"12851 Foster Street, Overland Park, Kansas 66213, USA",QTS Data Centers,0.18,27.35,2500.0,33000.0,12851,Foster Street,Overland Park,Kansas,38.89667671449,-94.67346118154192
141,https://datacenters.com/tierpoint-new-york-hwt-hawthorne,TierPoint: New York - HWT Hawthorne Data Center,"11 Skyline Drive, Hawthorne, NY, USA",TierPoint,,21.75,28000.0,46000.0,11,Skyline Drive,Hawthorne,NY,41.0883218,-73.81546461666011
142,https://datacenters.com/centersquare-boston-bo1-watertown,Centersquare: Boston (BO1-Watertown) Data Center,"486 Arsenal Way, Watertown, MA, USA",Centersquare,15.0,6.84,62257.0,201590.0,486,Arsenal Way,Watertown,MA,42.3664226,-71.15924884142905
144,https://datacenters.com/rackspace-nyc1-new-york-metro,Rackspace: NYC1 New York Metro Data Center,"125 Belmont Drive, Somerset, NJ, USA",Rackspace,1.2,21.13,11000.0,56000.0,125,Belmont Drive,Somerset,NJ,40.53972182102959,-74.53855536216703
145,https://datacenters.com/coresite-ny2-new-jersey-secaucus,CoreSite: NY2 New Jersey Secaucus Data Center,"2 Emerson Lane, Secaucus, NJ, USA",CoreSite,,8.08,,236000.0,2,Emerson Lane,Secaucus,NJ,40.785939,-74.0677
147,https://datacenters.com/stack-infrastructure-svy01-silicon-valley,Stack Infrastructure: SVY01 - Silicon Valley Data Center,"2001 Fortune Dr, San Jose, CA, USA",Stack Infrastructure,9.0,3.11,,140000.0,2001,Fortune Dr,San Jose,CA,37.4023956,-121.8929143
150,https://datacenters.com/lightedge-austin-ii,LightEdge: Austin II Data Center,"7000 Burleson Rd, Austin, TX 78744, USA",LightEdge,2.5,1.87,,58471.0,7000,Burleson Rd,Austin,TX,30.200528,-97.7066468
151,https://datacenters.com/h5-cleveland,H5 Data Centers: Cleveland Data Center,"1625 Rockwell Avenue, Cleveland, OH, USA",H5 Data Centers,10.0,10.57,150000.0,351000.0,1625,Rockwell Avenue,Cleveland,OH,41.50632687671233,-81.683262
152,https://datacenters.com/prime-prime-dallas-1515-round-table,Prime Data Centers: Prime Dallas - 1515 Round Table,"1515 Round Table Drive, Dallas, TX, USA",Prime Data Centers,6.0,1.25,24231.0,85747.0,1515,Round Table Drive,Dallas,TX,32.83790805,-96.87839317269456
153,https://datacenters.com/dataverge-brooklyn,DataVerge: Brooklyn Data Center,"882 3rd Avenue, Brooklyn, NY, USA",DataVerge,140.0,9.33,40000.0,50000.0,882,3rd Avenue,Brooklyn,NY,40.6579597,-74.00554875865322
154,https://datacenters.com/centersquare-seattle-se1-lynnwood,Centersquare: Seattle (SE1-Lynnwood) Data Center,"17300 Hwy 99, Lynnwood, Washington, USA",Centersquare,20.0,26.72,62395.0,103920.0,17300,Hwy 99,Lynnwood,Washington,47.841736299999994,-122.30171420535154
155,https://datacenters.com/equinix-dc1-ashburn,Equinix: DC1 Ashburn Data Center,"21711 Filigree Court, Ashburn, VA, USA",Equinix,2.4,4.35,19935.0,43356.0,21711,Filigree Court,Ashburn,VA,39.015528450000005,-77.46034102573952
156,https://datacenters.com/equinix-da7-plano,Equinix: DA7 Plano Data Center,"6653 Pinecrest Drive, Plano, TX, USA",Equinix,,17.4,37913.0,55201.0,6653,Pinecrest Drive,Plano,TX,33.062825797055936,-96.80951843575787
159,https://datacenters.com/digital-realty-new-york-ewr10,Digital Realty: New York EWR10 Data Center,"300 John F. Kennedy Blvd, Weehawken, NJ 07086, USA",Digital Realty,14.0,8.7,,370000.0,300,John F. Kennedy Blvd,Weehawken,NJ,40.7615218,-74.02602712192159
160,https://datacenters.com/fibertown-bryan,FIBERTOWN: Bryan Data Center,"110 N Main St, Bryan, TX, USA",FIBERTOWN,3.0,5.58,25000.0,47000.0,110,N Main St,Bryan,TX,30.673932428571426,-96.37343079591837
161,https://datacenters.com/cyrusone-phx1-phx8-phoenix,CyrusOne: PHX1-PHX8 Phoenix Data Center,"2335 South Ellis Street, Chandler, AZ, USA",CyrusOne,81.0,13.05,180000.0,1446438.0,2335,South Ellis Street,Chandler,AZ,33.2663856,-111.8820047924907
162,https://datacenters.com/qts-fort-worth-dallas,QTS Data Centers: Fort Worth - Dallas Data Center,"14100 Park Vista Boulevard, Fort Worth, TX, USA",QTS Data Centers,50.0,14.3,40000.0,300000.0,14100,Park Vista Boulevard,Fort Worth,TX,32.981432,-97.262693
164,https://datacenters.com/sba-edge-chicago,SBA Edge: Chicago Data Center,"603 Discovery Drive, West Chicago, IL, USA",SBA Edge,4.0,18.65,60000.0,80000.0,603,Discovery Drive,West Chicago,IL,41.875931,-88.2489668938641
165,https://datacenters.com/centersquare-bos1-waltham-campus,Centersquare: BOS1 Waltham Data Center Campus,"580 Winter Street, Waltham, MA, USA",Centersquare,16.0,12.43,107570.0,165968.0,580,Winter Street,Waltham,MA,42.39709206701546,-71.26718514277727
166,https://datacenters.com/equinix-mi6-doral,Equinix: MI6 Doral Data Center,"1525 Northwest 98th Court, Doral, FL, USA",Equinix,,3.73,75043.0,108336.0,1525,Northwest 98th Court,Doral,FL,25.78767745,-80.35468179280353
167,https://datacenters.com/databank-ord4-chicago-tri-state,DataBank: ORD4 Chicago Tri-State Data Center,"1808 Swift Drive, Oak Brook, IL, USA",DataBank,8.75,8.08,77510.0,147000.0,1808,Swift Drive,Oak Brook,IL,41.85429574427845,-87.92214194110039
168,https://datacenters.com/lumen-houston-1,Lumen: Houston 1 Data Center,"12001 North Freeway, Houston, TX, USA",Lumen,,4.98,14816.0,51300.0,12001,North Freeway,Houston,TX,29.8971063,-95.41238505
169,https://datacenters.com/copt-dc-6-manassas,COPT Data Center: DC-6 Manassas Data Center,"9651 Hornbaker Road, Manassas, VA, USA",COPT Data Center,16.0,14.3,100000.0,100000.0,9651,Hornbaker Road,Manassas,VA,38.74728305,-77.53182644813808
170,https://datacenters.com/centersquare-los-angeles-la2-irvine,Centersquare: Los Angeles (LA2-Irvine) Data Center,"2681 Kelvin Ave, Irvine, California, USA",Centersquare,15.0,1.87,70580.0,150000.0,2681,Kelvin Ave,Irvine,California,33.6847703,-117.83669561457309
171,https://datacenters.com/cyrusone-aus3-austin,CyrusOne: AUS3 Austin Data Center,"7100 Metropolis Drive, Austin, TX, USA",CyrusOne,24.0,1.87,120000.0,172000.0,7100,Metropolis Drive,Austin,TX,30.206951150000002,-97.70111931170717
172,https://datacenters.com/equinix-ch4-chicago,Equinix: CH4 Chicago Data Center,"350 East Cermak Road, Chicago, IL, USA",Equinix,8.2,16.78,23614.0,26560.0,350,East Cermak Road,Chicago,IL,41.85375365,-87.6183797609595
173,https://datacenters.com/flexential-atlanta-norcross,Flexential: Atlanta - Norcross Data Center,"2775 Northwoods Pkwy, Norcross, GA 30071, USA",Flexential,2.21,24.86,10000.0,32740.0,2775,Northwoods Pkwy,Norcross,GA,33.954730350000006,-84.1985251922619
174,https://datacenters.com/netrality-kc1-1102-grand-kansas-city,Netrality Data Centers: KC1 - 1102 Grand Kansas City Data Center,"1102 Grand Blvd, Kansas City, MO, USA",Netrality Data Centers,26.0,14.92,63300.0,110000.0,1102,Grand Blvd,Kansas City,MO,39.1009164,-94.58124144686099
176,https://datacenters.com/centersquare-msp1-shakopee-campus,Centersquare: MSP1 Shakopee Data Center Campus,"4450 Dean Lakes Boulevard, Shakopee, MN, USA",Centersquare,10.0,14.3,28900.0,50000.0,4450,Dean Lakes Boulevard,Shakopee,MN,44.780742610845856,-93.46395389243332
177,https://datacenters.com/digital-realty-chicago-ord011,Digital Realty: Chicago ORD011 Data Center,"600 South Federal Street, Chicago, IL, USA",Digital Realty,10.0,15.54,161547.0,162000.0,600,South Federal Street,Chicago,IL,41.87430605,-87.62994041963549
178,https://datacenters.com/ntt-global-va1-ashburn,NTT Global Data Centers: VA1 Ashburn Data Center,"44664 Guilford Drive, Ashburn, VA, USA",NTT Global Data Centers,28.4,4.98,7000.0,150000.0,44664,Guilford Drive,Ashburn,VA,39.022754899999995,-77.45482557908068
180,https://datacenters.com/amazon-aws-iad50-ashburn,Amazon AWS: IAD50 Ashburn,"21271 Smith Switch Road, Ashburn, VA, USA",Amazon AWS,,5.6,,120666.0,21271,Smith Switch Road,Ashburn,VA,39.027912650000005,-77.45749705034054
181,https://datacenters.com/sabey-sdc-austin,Sabey Data Centers: SDC Austin Data Center,"1300 Louis Henna Boulevard, Round Rock, TX, USA",Sabey Data Centers,84.0,19.89,,430000.0,1300,Louis Henna Boulevard,Round Rock,TX,30.488012150000003,-97.64711231655714
182,https://datacenters.com/equinix-ny1-newark,Equinix: NY1 Newark Data Center,"165 Halsey Street, Newark, NJ, USA",Equinix,0.9,3.1,21771.0,46465.0,165,Halsey Street,Newark,NJ,40.7367988,-74.17341306666667
183,https://datacenters.com/365-bca-boca-raton,365 Data Centers: BCA Boca Raton Data Center,"3500 Northwest Boca Raton Boulevard, Boca Raton, FL, USA",365 Data Centers,2.66,21.75,30400.0,49850.0,3500,Northwest Boca Raton Boulevard,Boca Raton,FL,26.3814312,-80.0836087
186,https://datacenters.com/netrality-210-north-tucker-st-louis,Netrality Data Centers: 210 North Tucker St. Louis Data Center,"210 North Tucker Boulevard, St. Louis, MO, USA",Netrality Data Centers,20.0,12.43,45200.0,442837.0,210,North Tucker Boulevard,St. Louis,MO,38.6291523713277,-90.19783326020627
187,https://datacenters.com/centersquare-iad3-sterling-campus,Centersquare: IAD3 Sterling Data Center Campus,"22860 International Drive, Sterling, VA, USA",Centersquare,47.0,4.0,556457.0,556457.0,22860,International Drive,Sterling,VA,38.983502599999994,-77.42392429785245
188,https://datacenters.com/tierpoint-nashville,TierPoint: Nashville Data Center,"311 Eddy Lane, Franklin, TN, USA",TierPoint,,16.16,26000.0,52000.0,311,Eddy Lane,Franklin,TN,35.92477703325057,-86.85689415336265
189,https://datacenters.com/coresite-va1-reston,CoreSite: VA1 Reston Data Center,"12100 Sunrise Valley Drive, Reston, VA, USA",CoreSite,,5.8,,201000.0,12100,Sunrise Valley Drive,Reston,VA,38.949067,-77.364672
190,https://datacenters.com/digital-realty-dallas-dfw28,Digital Realty: Dallas DFW28 Data Center,"850 East Collins Boulevard, Richardson, TX, USA",Digital Realty,15.0,19.3,121000.0,121366.0,850,East Collins Boulevard,Richardson,TX,32.9673234,-96.71332169367173
191,https://datacenters.com/flexential-phoenix-deer-valley,Flexential: Phoenix - Deer Valley Data Center,"1850 W Deer Valley Rd, Phoenix, AZ 85027, USA",Flexential,5.02,18.02,42500.0,109476.0,1850,W Deer Valley Rd,Phoenix,AZ,33.6845177,-112.09833977156488
192,https://datacenters.com/digital-realty-dallas-dfw14,Digital Realty: Dallas DFW14 Data Center,"4849 Alpha Road, Dallas, TX, USA",Digital Realty,9.5,12.43,,125600.0,4849,Alpha Road,Dallas,TX,32.933869200000004,-96.82802116664345
194,https://datacenters.com/involta-tucson,Involta: Tucson Data Center,"1215 East Pennsylvania Street, Tucson, AZ, USA",Involta,,3.73,20000.0,38000.0,1215,East Pennsylvania Street,Tucson,AZ,32.17187227018702,-110.95392027388755
195,https://datacenters.com/first-national-technology-solutions-fnts-omaha,First National Technology Solutions (FNTS): Omaha Data Center,"201 N 16th St, Omaha, NE 68197, USA",First National Technology Solutions (FNTS),4.0,3.11,61000.0,190000.0,201,N 16th St,Omaha,NE,41.26080318367347,-95.93726590816325
196,https://datacenters.com/databridge-sites-silver-spring-washington-d-c,"DataBridge Sites: Silver Spring/Washington, D.C. Data Center","12401 Prosperity Drive, Silver Spring, MD, USA",DataBridge Sites,10.0,14.3,90000.0,214000.0,12401,Prosperity Drive,Silver Spring,MD,39.058622400000004,-76.96411078870383
197,https://datacenters.com/365-nj1-bridgewater-new-jersey,365 Data Centers: NJ1 Bridgewater New Jersey Data Center,"999 Frontier Road, Bridgewater, NJ, USA",365 Data Centers,2.3,21.75,25600.0,,999,Frontier Road,Bridgewater,NJ,40.58144235,-74.5738875019825
198,https://datacenters.com/amazon-aws-iad15-sterling,Amazon AWS: IAD15 Sterling,"22631 Dulles Summit Ct, Sterling, VA, USA",Amazon AWS,,3.11,,99000.0,22631,Dulles Summit Ct,Sterling,VA,38.99173735,-77.44870612877443
199,https://datacenters.com/digital-realty-austin-aus11,Digital Realty: Austin AUS11 Data Center,"7500 Metro Center Drive, Austin, TX, USA",Digital Realty,16.0,1.9,,85688.0,7500,Metro Center Drive,Austin,TX,30.2121195,-97.69589126682894
201,https://datacenters.com/digital-realty-new-york-jfk10,Digital Realty: New York JFK10 Data Center,"111 8th Avenue, New York, NY, USA",Digital Realty,18.5,13.7,,109600.0,111,8th Avenue,New York,NY,40.7408812,-74.0020865
203,https://datacenters.com/lightedge-des-moines-ii-2,LightEdge: Des Moines II Data Center,"1401 Northridge Circle, Altoona, IA 50009, USA",LightEdge,6.1,286.46,,48000.0,1401,Northridge Circle,Altoona,IA,41.666806449999996,-93.45594347669609
205,https://datacenters.com/amazon-aws-5117-hayden-run,Amazon AWS: 5117 Hayden Run,"5117 Hayden Run Rd, Hilliard, OH 43026, USA",Amazon AWS,,13.68,,154000.0,5117,Hayden Run Rd,Hilliard,OH,40.061804049142005,-83.13872012418467
206,https://datacenters.com/element-critical-skybox-houston-one,Element Critical: Skybox Houston One Data Center,"22000 Franz Road, Katy, TX, USA",Element Critical,26.0,27.35,73184.0,118248.0,22000,Franz Road,Katy,TX,29.80167375,-95.8142167
207,https://datacenters.com/cyrusone-cin2-cincinnati-7th-street,CyrusOne: CIN2 Cincinnati 7th Street Data Center,"229 West 7th Street, Cincinnati, OH, USA",CyrusOne,12.0,8.7,212000.0,400000.0,229,West 7th Street,Cincinnati,OH,39.1027886,-84.51792286125507
209,https://datacenters.com/cyrusone-nym2-totowa,CyrusOne: NYM2 Totowa Data Center,"50 Madison Road, Totowa, NJ, USA",CyrusOne,16.0,14.92,50000.0,200000.0,50,Madison Road,Totowa,NJ,40.90675453783676,-74.24208495388162
210,https://datacenters.com/databank-den2-centennial,DataBank: DEN2 Centennial Data Center,"6900 South Peoria Street, Centennial, CO, USA",DataBank,4.0,20.51,31510.0,81900.0,6900,South Peoria Street,Centennial,CO,39.591322,-104.8470456908424
211,https://datacenters.com/digital-realty-new-york-hvn10,Digital Realty: New York HVN10 Data Center,"80 Merritt Boulevard, Trumbull, CT, USA",Digital Realty,15.0,52.82,,228000.0,80,Merritt Boulevard,Trumbull,CT,41.24072805,-73.14741211904382
212,https://datacenters.com/equinix-ch7-westmont,Equinix: CH7 Westmont Data Center,"111 Plaza Drive, Westmont, IL, USA",Equinix,12.0,11.81,28900.0,46743.0,111,Plaza Drive,Westmont,IL,41.81294741231317,-87.97292617575796
213,https://datacenters.com/digital-fortress-north-seattle-lyn,Digital Fortress: North Seattle Data Center - (LYN),"4200 194th St SW, Lynnwood, WA, USA",Digital Fortress,6.0,25.48,13050.0,34600.0,4200,194th St SW,Lynnwood,WA,47.822783,-122.29113838171247
214,https://datacenters.com/aligned-energy-slc-01-salt-lake-city,Aligned Data Centers: SLC-01 Salt Lake City,"3333 West 9000 South, West Jordan, UT, USA",Aligned Data Centers,34.0,13.68,150000.0,300000.0,3333,West 9000 South,West Jordan,UT,40.58791487399346,-112.01901212562954
215,https://datacenters.com/digital-realty-dallas-dfw18,Digital Realty: Dallas DFW18 Data Center,"1210 Integrity Drive, Richardson, TX, USA",Digital Realty,60.0,19.3,240000.0,458500.0,1210,Integrity Drive,Richardson,TX,32.965124,-96.71259896214985
216,https://datacenters.com/equinix-dc15-washington-dc-ibx,Equinix: DC15 Washington DC IBX Data Center,"44780 Performance Circle, Ashburn, VA 20147, U.S.",Equinix,,4.98,,57772.0,44780,Performance Circle,Ashburn,VA,39.02250015,-77.45025584999999
217,https://datacenters.com/lightedge-kansas-city,LightEdge: Kansas City Data Center,"9050 Northeast Underground Drive, Kansas City, MO, USA",LightEdge,2.7,15.54,34280.0,72393.0,9050,Northeast Underground Drive,Kansas City,MO,39.15801210333933,-94.47459651492703
218,https://datacenters.com/stack-infrastructure-atl01-atlanta,Stack Infrastructure: ATL01 Atlanta Data Center,"3200 Webb Bridge Road, Alpharetta, GA, USA",Stack Infrastructure,19.0,31.07,,102500.0,3200,Webb Bridge Road,Alpharetta,GA,34.075905500000005,-84.26431220360183
219,https://datacenters.com/digital-realty-new-york-ewr11,Digital Realty: New York EWR11 Data Center,"3 Corporate Place, Piscataway Township, NJ, USA",Digital Realty,26.0,16.8,135000.0,277000.0,3,Corporate Place,Piscataway Township,NJ,40.553791149999995,-74.45706791394755
221,https://datacenters.com/element-critical-austin-one-2,Element Critical: Austin One Data Center,"8025 N Interstate Hwy 35, Austin, TX 78753, USA",Element Critical,5.0,9.95,,62300.0,8025,N Interstate Hwy 35,Austin,TX,30.3428035,-97.69617382746422
222,https://datacenters.com/telesystem-dc-1-ohio,Telesystem: DC-1 Ohio Data Center,"4818 Angola Road, Toledo, OH, USA",Telesystem,,43.5,1850.0,40000.0,4818,Angola Road,Toledo,OH,41.6256164,-83.65554924550793
224,https://datacenters.com/stream-phoenix-i-vi-goodyear-campus,Stream Data Centers: Phoenix I-VI Goodyear Campus,"2950 South Litchfield Road, Goodyear, AZ, USA",Stream Data Centers,40.5,20.51,,418200.0,2950,South Litchfield Road,Goodyear,AZ,33.4194907,-112.35998843601695
227,https://datacenters.com/digital-realty-atlanta-atl13,Digital Realty: Atlanta ATL13 Data Center,"56 Marietta Street NorthWest, Atlanta, GA, USA",Digital Realty,9.5,8.08,,153000.0,56,Marietta Street NorthWest,Atlanta,GA,33.762757258636405,-84.39693476338218
228,https://datacenters.com/us-signal-5515-nobel-dr,US Signal: 5515 Nobel Dr Data Center,"5515 Nobel Dr, Fitchburg, WI 53711, USA",US Signal,,104.4,,60000.0,5515,Nobel Dr,Fitchburg,WI,42.994753450000005,-89.4233900055643
229,https://datacenters.com/rackspace-ord1-chicago,Rackspace: ORD1 Chicago Data Center,"2200 Busse Road, Elk Grove Village, IL, USA",Rackspace,10.2,3.11,,70843.0,2200,Busse Road,Elk Grove Village,IL,41.994230099999996,-87.96223156699811
230,https://datacenters.com/cologix-col1-columbus,Cologix: COL1 Columbus Data Center,"535 Scherers Court, Columbus, OH, USA",Cologix,,9.95,11000.0,11000.0,535,Scherers Court,Columbus,OH,40.11647609568262,-83.00216667279285
231,https://datacenters.com/365-li1-commack,365 Data Centers: LI1 Commack Data Center,"500 Commack Road, Commack, NY, USA",365 Data Centers,6.0,27.97,,26200.0,500,Commack Road,Commack,NY,40.82205365,-73.2918885158931
232,https://datacenters.com/tonaquint-tonaquint-st-george-1,Tonaquint Datacenters: Tonaquint - St George 1,"1108 West 1600 South, St. George, UT, USA",Tonaquint Datacenters,4.0,1.25,17200.0,28000.0,1108,West 1600 South,St. George,UT,37.08085293522583,-113.60522241338212
233,https://datacenters.com/lumen-dallas-1,Lumen: Dallas 1 Data Center,"3180 Irving Blvd, Dallas, TX, USA",Lumen,12.0,11.19,46070.0,80000.0,3180,Irving Blvd,Dallas,TX,32.8069549,-96.86858877519526
234,https://datacenters.com/databank-sna2-irvine,DataBank: SNA2 Irvine Data Center,"17400 Von Karman Avenue, Irvine, CA, USA",DataBank,8.0,1.25,53150.0,,17400,Von Karman Avenue,Irvine,CA,33.687884499999996,-117.84245228891338
236,https://datacenters.com/databank-sea2-seatac,DataBank: SEA2 SeaTAC Data Center,"3311 South 120th Place, Tukwila, WA, USA",DataBank,1.0,3.11,10200.0,40000.0,3311,South 120th Place,Tukwila,WA,47.4950309,-122.29056965
237,https://datacenters.com/coresite-va3-reston,CoreSite: VA3 Reston Data Center,"12369 Sunrise Valley Drive, Reston, VA, USA",CoreSite,,5.5,,940000.0,12369,Sunrise Valley Drive,Reston,VA,38.9483459,-77.37249201286755
238,https://datacenters.com/ntt-global-ca3-sacramento,NTT Global Data Centers: CA3 Sacramento Data Center,"1625 West National Drive, Sacramento, CA, USA",NTT Global Data Centers,14.0,5.97,64723.0,64723.0,1625,West National Drive,Sacramento,CA,38.652977932743255,-121.48771698263278
239,https://datacenters.com/cologix-col4-columbus,Cologix: COL4 Columbus Data Center,"7500 Alta View Boulevard, Columbus, OH, USA",Cologix,27.0,9.95,,256000.0,7500,Alta View Boulevard,Columbus,OH,40.117825426014456,-83.0007799459351
240,https://datacenters.com/databank-aus1-austin,DataBank: AUS1 - Austin Data Center,"7218 McNeil Drive, Austin, TX, USA",DataBank,0.405,17.4,7870.0,11000.0,7218,McNeil Drive,Austin,TX,30.435985,-97.766046
242,https://datacenters.com/sentinel-ny-1,Sentinel Data Centers: NY-1 Data Center,"155 Corporate Drive, Orangeburg, NY, USA",Sentinel Data Centers,8.0,18.65,,130000.0,155,Corporate Drive,Orangeburg,NY,41.0362636,-73.9876276
243,https://datacenters.com/prime-prime-chicago-1701-midway-ct,Prime Data Centers: Prime Chicago - 1701 Midway Ct.,"1701 Midway Ct, Elk Grove Village, IL, USA",Prime Data Centers,72.0,4.35,162000.0,381141.0,1701,Midway Ct,Elk Grove Village,IL,42.024850464909456,-87.96172075730499
244,https://datacenters.com/digital-realty-northern-virginia-acc4,Digital Realty: Northern Virginia ACC4 Data Center,"44480 Hastings Drive, Ashburn, VA, USA",Digital Realty,36.4,5.0,171200.0,348000.0,44480,Hastings Drive,Ashburn,VA,39.01789585,-77.46253069403024
245,https://datacenters.com/evocative-santa-clara-sjc11,Evocative: Santa Clara Data Center (SJC11),"2151 Mission College Blvd, Santa Clara, CA 95054, USA",Evocative,9.0,4.2,,73000.0,2151,Mission College Blvd,Santa Clara,CA,37.38858276926831,-121.96269568148674
247,https://datacenters.com/stream-minneapolis-ii-chaska,Stream Data Centers: Minneapolis II - Chaska Data Center,"1706 West Creek Lane, Chaska, MN, USA",Stream Data Centers,4.8,21.13,20000.0,56000.0,1706,West Creek Lane,Chaska,MN,44.80610670720174,-93.63455881839572
248,https://datacenters.com/sabey-sdc-columbia,Sabey Data Centers: SDC Columbia Data Center,"4405 Grant Rd, East Wenatchee, WA 98802, USA",Sabey Data Centers,,0.63,,,4405,Grant Rd,East Wenatchee,WA,47.4072906,-120.18949
249,https://datacenters.com/rackspace-iad3-ashburn-i,Rackspace: IAD3 Ashburn I Data Center,"44461 Chilum Place, Ashburn, VA, USA",Rackspace,9.8,4.98,,48917.0,44461,Chilum Place,Ashburn,VA,39.021026500000005,-77.46357334235407
250,https://datacenters.com/us-signal-10290-w-70th-st,US Signal: 10290 W 70th St Data Center,"10290 W 70th St, Eden Prairie, MN 55344, USA",US Signal,,9.33,,50000.0,10290,W 70th St,Eden Prairie,MN,44.87673704388125,-93.40718353084263
251,https://datacenters.com/ibm-wdc07-ashburn-va,"IBM Cloud: WDC07 Ashburn, VA","Ashburn, VA, USA",IBM Cloud,,6.84,,,,Ashburn,VA,,39.029784,-77.4744147959966
254,https://datacenters.com/provision-data-services-2020-live-oak-st,Provision Data Services: 2020 Live Oak St Data Center,"2020 Live Oak Street, Dallas, TX, USA",Provision Data Services,2.0,15.54,20000.0,137700.0,2020,Live Oak Street,Dallas,TX,32.783714599999996,-96.79462286306006
256,https://datacenters.com/fibertown-houston,FIBERTOWN: Houston Data Center,"12031 North Freeway, Houston, TX, USA",FIBERTOWN,6.0,4.98,,10000.0,12031,North Freeway,Houston,TX,29.8971063,-95.41238505
257,https://datacenters.com/tierpoint-dallas-allen,TierPoint: Dallas - Allen Data Center,"840 Allen Commerce Parkway, Allen, TX, USA",TierPoint,2.5,27.35,16000.0,30000.0,840,Allen Commerce Parkway,Allen,TX,33.13714923947091,-96.65945806278445
258,https://datacenters.com/equinix-la1-los-angeles,Equinix: LA1 Los Angeles Data Center,"600 West 7th Street, Los Angeles, CA, USA",Equinix,2.3,11.19,60718.0,125479.0,600,West 7th Street,Los Angeles,CA,34.0473499,-118.256999
259,https://datacenters.com/equinix-ch2-chicago,Equinix: CH2 Chicago Data Center,"350 East Cermak Road, Chicago, IL, USA",Equinix,8.2,16.78,58852.0,143630.0,350,East Cermak Road,Chicago,IL,41.85375365,-87.6183797609595
260,https://datacenters.com/amazon-aws-22868-international-dr,Amazon AWS: 22868 International Dr,"22868 International Dr, Sterling, VA 20166, USA",Amazon AWS,,3.11,,200000.0,22868,International Dr,Sterling,VA,38.984978282475936,-77.42448664205808
261,https://datacenters.com/evocative-new-jersey-ewr1,Evocative: New Jersey Data Center (EWR1),"1 Enterprise Avenue North, Secaucus, NJ, USA",Evocative,10.0,14.0,,105000.0,1,Enterprise Avenue North,Secaucus,NJ,40.78878,-74.066502
262,https://datacenters.com/cyrusone-chi2-chicago-aurora,CyrusOne: CHI2 Chicago Aurora Data Center,"2805 Diehl Rd, Aurora, IL, USA",CyrusOne,50.4,21.13,240000.0,428000.0,2805,Diehl Rd,Aurora,IL,41.797816065976775,-88.24841296557545
263,https://datacenters.com/databank-lga2-downtown-new-york-city,DataBank: LGA2 - Downtown New York City Data Center,"111 8th Avenue, New York, NY, USA",DataBank,0.68,6.84,10660.0,,111,8th Avenue,New York,NY,40.7408812,-74.0020865
264,https://datacenters.com/t5-chicago,T5 Data Centers: @Chicago Data Center,"200 Innovation Drive, Elk Grove Village, IL, USA",T5 Data Centers,20.0,4.35,110000.0,165000.0,200,Innovation Drive,Elk Grove Village,IL,42.02304225,-87.97555675063975
265,https://datacenters.com/coresite-la1-los-angeles,CoreSite: LA1 Los Angeles Data Center,"624 South Grand Avenue, Los Angeles, CA, USA",CoreSite,,11.19,,173000.0,624,South Grand Avenue,Los Angeles,CA,34.0478871,-118.25555410911281
266,https://datacenters.com/flexential-atlanta-alpharetta,Flexential: Atlanta - Alpharetta Data Center,"12655 Edison Drive, Alpharetta, GA, USA",Flexential,6.0,32.32,10000.0,142475.0,12655,Edison Drive,Alpharetta,GA,34.08701705,-84.25182534957617
267,https://datacenters.com/involta-boise-1,Involta: Boise 1 Data Center,"2653 South Victory View Way, Boise, ID, USA",Involta,,3.11,34000.0,,2653,South Victory View Way,Boise,ID,43.580025,-116.29087824999999
269,https://datacenters.com/equinix-se3-seattle,Equinix: SE3 Seattle Data Center,"2020 5th Avenue, Seattle, WA, USA",Equinix,7.5,0.63,17750.0,58685.0,2020,5th Avenue,Seattle,WA,47.6144218,-122.33974278213995
270,https://datacenters.com/digital-realty-boston-bos14,Digital Realty: Boston BOS14 Data Center,"128 1st Avenue, Needham, MA, USA",Digital Realty,30.0,11.2,153000.0,314000.0,128,1st Avenue,Needham,MA,42.30178767459167,-71.22181135207492
272,https://datacenters.com/equinix-da6-dallas,Equinix: DA6 Dallas Data Center,"1950 North Stemmons Freeway, Dallas, TX, USA",Equinix,60.0,7.46,107785.0,141096.0,1950,North Stemmons Freeway,Dallas,TX,32.800965950000005,-96.81952300449768
273,https://datacenters.com/digital-realty-silicon-valley-sjc37,Digital Realty: Silicon Valley SJC37 Data Center,"641 Walsh Ave, Santa Clara, CA 95050, USA",Digital Realty,100.0,0.63,,430000.0,641,Walsh Ave,Santa Clara,CA,37.3709829,-121.94721118096327
275,https://datacenters.com/prime-prime-bay-area-26415-corporate-ave,Prime Data Centers: Prime Bay Area - 26415 Corporate Ave,"26415 Corporate Avenue, Hayward, CA, USA",Prime Data Centers,20.0,14.3,,145850.0,26415,Corporate Avenue,Hayward,CA,37.626012,-122.11339776290374
276,https://datacenters.com/databank-sna1-irvine,DataBank: SNA1 Irvine Data Center,"17222 Von Karman Avenue, Irvine, CA, USA",DataBank,2.64,1.87,36720.0,52800.0,17222,Von Karman Avenue,Irvine,CA,33.69043345,-117.84060025571904
277,https://datacenters.com/cyrusone-dur1-raleigh-durham,CyrusOne: DUR1 Raleigh-Durham Data Center,"2223 Northeast Creek Parkway, Durham, NC, USA",CyrusOne,50.0,6.22,220000.0,420000.0,2223,Northeast Creek Parkway,Durham,NC,35.935305,-78.88103295534475
278,https://datacenters.com/databank-las1-las-vegas,DataBank: LAS1 Las Vegas Data Center,"7185 Pollock Drive, Las Vegas, NV, USA",DataBank,3.6,1.25,,36800.0,7185,Pollock Drive,Las Vegas,NV,36.0597501,-115.14709380333974
280,https://datacenters.com/flexential-atlanta-douglasville-1,Flexential: Atlanta - Douglasville 1 Data Center,"1700 N River Rd, Douglasville, GA, USA",Flexential,22.5,11.81,205000.0,205000.0,1700,N River Rd,Douglasville,GA,33.731057250000006,-84.61608098866998
281,https://datacenters.com/hostdime-orlando-coming-2024,HostDime: Orlando Data Center (Coming 2024),"980 Wymore Road, Eatonville, FL, USA",HostDime,,13.05,,100000.0,980,Wymore Road,Eatonville,FL,28.61964069916144,-81.3859315792012
282,https://datacenters.com/bluebird-bluebird-underground,Bluebird Data Centers: Bluebird Underground Data Center,"1904 Le Compte Rd, Springfield, MO, USA",Bluebird Data Centers,6.0,9.33,11000.0,,1904,Le Compte Rd,Springfield,MO,37.233315561322186,-93.21555678715734
284,https://datacenters.com/h5-denver,H5 Data Centers: Denver Data Center,"5350 South Valentia Way, Greenwood Village, CO, USA",H5 Data Centers,17.0,19.89,65000.0,300000.0,5350,South Valentia Way,Greenwood Village,CO,39.616754900000004,-104.89168138081357
285,https://datacenters.com/digital-realty-los-angeles-lax10,Digital Realty: Los Angeles LAX10 Data Center,"600 West 7th Street, Los Angeles, CA, USA",Digital Realty,27.0,11.19,489722.0,490000.0,600,West 7th Street,Los Angeles,CA,34.0473499,-118.256999
286,https://datacenters.com/bluebird-bluebird-quad-cities,Bluebird Data Centers: Bluebird Quad Cities Data Center,"2701 Devils Glen Road, Bettendorf, IA, USA",Bluebird Data Centers,4.0,136.09,,,2701,Devils Glen Road,Bettendorf,IA,41.550357857142856,-90.48345471428571
287,https://datacenters.com/oracle-us-dod-east-us-gov-ashburn-1,Oracle: US DoD East us-gov-ashburn-1,"Ashburn, VA, USA",Oracle,,6.84,,,,Ashburn,VA,,39.029784,-77.4744147959966
288,https://datacenters.com/flexential-raleigh,Flexential: Raleigh Data Center,"5150 McCrimmon Parkway #423, Morrisville, NC 27560, USA",Flexential,4.31,2.49,15500.0,99976.0,5150,McCrimmon Parkway #423,Morrisville,NC,35.8505281,-78.8291431
289,https://datacenters.com/trg-houston,TRG Datacenters: Houston Data Center,"2626 Spring Cypress Road, Houston, TX, USA",TRG Datacenters,5.2,12.43,150000.0,150000.0,2626,Spring Cypress Road,Houston,TX,30.074942056888226,-95.4354048791338
290,https://datacenters.com/equinix-se2-seattle,Equinix: SE2 Seattle Data Center,"2001 6th Avenue, Seattle, WA, USA",Equinix,2.1,0.63,36382.0,43610.0,2001,6th Avenue,Seattle,WA,47.614354750000004,-122.33886370511684
291,https://datacenters.com/databank-mia1-miami,DataBank: MIA1 - Miami Data Center,"36 Northeast 2nd Street, Miami, FL, USA",DataBank,1.6,5.6,11030.0,162000.0,36,Northeast 2nd Street,Miami,FL,25.7758419,-80.1929625
292,https://datacenters.com/digital-realty-dallas-dfw25,Digital Realty: Dallas DFW25 Data Center,"1215 Integrity Drive, Richardson, TX, USA",Digital Realty,60.0,19.3,,118000.0,1215,Integrity Drive,Richardson,TX,32.96483325,-96.71588459880924
293,https://datacenters.com/inap-new-jersey-1,INAP: New Jersey 1 Data Center,"1 Enterprise Avenue North, Secaucus, NJ, USA",INAP,20.0,8.7,54000.0,54000.0,1,Enterprise Avenue North,Secaucus,NJ,40.78878,-74.066502
294,https://datacenters.com/digital-realty-silicon-valley-sfo12,Digital Realty: Silicon Valley SFO12 Data Center,"365 Main Street, San Francisco, CA, USA",Digital Realty,15.0,11.19,226981.0,227000.0,365,Main Street,San Francisco,CA,37.788731049999996,-122.3904690619859
295,https://datacenters.com/digital-realty-phoenix-phx10,Digital Realty: Phoenix PHX10 Data Center,"120 East Van Buren Street, Phoenix, AZ, USA",Digital Realty,32.3,4.3,175000.0,347000.0,120,East Van Buren Street,Phoenix,AZ,33.4519107,-112.07190774845004
296,https://datacenters.com/h5-ashburn,H5 Data Centers: Ashburn Data Center,"21800 Beaumeade Circle, Ashburn, VA, USA",H5 Data Centers,20.0,4.35,70000.0,76000.0,21800,Beaumeade Circle,Ashburn,VA,39.0136777,-77.45171940289748
298,https://datacenters.com/google-storey-county-nv,"Google: Storey County, NV Data Center","Sparks, NV, USA",Google,,2.49,,,,Sparks,NV,,39.5404679,-119.7487235
300,https://datacenters.com/amazon-aws-pdx51,Amazon AWS: PDX51,"Beach Access Rd, Umatilla, OR 97882, USA",Amazon AWS,,178.34,,,,Beach Access Rd,Umatilla,OR,45.9288760244058,-119.26944264255893
301,https://datacenters.com/1547-critical-systems-realty-haii1-alohanap,1547 Critical Systems Realty: HAII1 AlohaNAP Data Center,"91-340 Farrington Hwy, Kapolei, HI, USA",1547 Critical Systems Realty,2.0,9.95,8350.0,10200.0,,91-340 Farrington Hwy,Kapolei,HI,21.3668793,-158.045344
302,https://datacenters.com/giga-clt-1,GIGA Data Centers: CLT-1 Data Center,"1035 Mecklenburg Hwy, Mooresville, NC, USA",GIGA Data Centers,60.0,28.0,120000.0,165000.0,1035,Mecklenburg Hwy,Mooresville,NC,35.5634941,-80.8280378
303,https://datacenters.com/databank-atl5-lithia-springs-campus,DataBank: ATL5 - Lithia Springs Campus,"4764 Bakers Ferry Rd SW, Atlanta, GA 30336, USA",DataBank,48.0,9.95,150000.0,200000.0,4764,Bakers Ferry Rd SW,Atlanta,GA,33.747275033082445,-84.54143716591233
305,https://datacenters.com/lightedge-austin-i,LightEdge: Austin I Data Center,"2916 Montopolis Dr, Austin, TX 78741, USA",LightEdge,2.5,2.49,,58471.0,2916,Montopolis Dr,Austin,TX,30.21429715,-97.71266755173377
307,https://datacenters.com/tierpoint-raleigh,TierPoint: Raleigh Data Center,"5301 Departure Drive, Raleigh, NC, USA",TierPoint,2.0,10.57,40000.0,65000.0,5301,Departure Drive,Raleigh,NC,35.854389607470736,-78.59581500568936
308,https://datacenters.com/coresite-dc2-washington-dc,CoreSite: DC2 Washington DC Data Center,"1099 14th Street Northwest, Downtown, Washington, DC, USA",CoreSite,,3.11,,24000.0,1099,14th Street Northwest,Downtown,Washington,38.9033891,-77.03123368239036
309,https://datacenters.com/aligned-energy-ord-01-chicago,Aligned Data Centers: ORD-01 Chicago,"505 Northwest Avenue, Northlake, IL, USA",Aligned Data Centers,36.0,4.35,,220000.0,505,Northwest Avenue,Northlake,IL,41.91890966656286,-87.91923046591049
312,https://datacenters.com/cogent-communications-dtw02-fnsi-detroit,Cogent Communications: DTW02 - FNSI - Detroit Data Center,"3331 W Big Beaver Rd, Troy, MI, USA",Cogent Communications,,24.86,5624.0,128526.0,3331,W Big Beaver Rd,Troy,MI,42.5594738,-83.193147
313,https://datacenters.com/stack-infrastructure-por02-portland,Stack Infrastructure: POR02 - Portland Data Center,"21515 NW Evergreen Pkwy, Hillsboro, OR, USA",Stack Infrastructure,24.0,14.3,,345000.0,21515,NW Evergreen Pkwy,Hillsboro,OR,45.54049700307076,-122.87401820289791
314,https://datacenters.com/coresite-dc1-washington-dc,CoreSite: DC1 Washington DC Data Center,"1275 K Street Northwest, Washington, DC, USA",CoreSite,,3.11,,22000.0,1275,K Street Northwest,Washington,DC,38.9028879,-77.0291491
316,https://datacenters.com/prime-prime-santa-clara-1111-comstock,Prime Data Centers: Prime Santa Clara - 1111 Comstock,"1111 Comstock Street, Santa Clara, CA, USA",Prime Data Centers,9.0,1.25,,121000.0,1111,Comstock Street,Santa Clara,CA,37.37500515,-121.95322522502798
317,https://datacenters.com/365-ny10-new-york-city,365 Data Centers: NY10 New York City Data Center,"65 Broadway, NY, New York, USA",365 Data Centers,0.7,8.7,16583.0,,65,Broadway,NY,New York,40.707308350000005,-74.01261742553027
318,https://datacenters.com/involta-marion,Involta: Marion Data Center,"5055 Rec Drive, Marion, IA, USA",Involta,0.81,187.04,,19000.0,5055,Rec Drive,Marion,IA,42.05382927372498,-91.55191525011101
319,https://datacenters.com/edgeconnex-bos01-boston,EdgeConnex: BOS01 Boston Data Center,"22 Linnell Circle, Billerica, MA 01821, USA",EdgeConnex,1.5,16.16,,54700.0,22,Linnell Circle,Billerica,MA,42.5285937,-71.24947227764723
320,https://datacenters.com/oracle-us-west-us-sanjose-1,Oracle: US West us-sanjose-1,"San Jose, CA, USA",Oracle,,2.49,,,,San Jose,CA,,37.3361663,-121.890591
321,https://datacenters.com/365-nj3-carlstadt,365 Data Centers: NJ3 Carlstadt Data Center,"410 Commerce Boulevard, Carlstadt, NJ, USA",365 Data Centers,18.0,11.19,,187600.0,410,Commerce Boulevard,Carlstadt,NJ,40.82875945,-74.05392515
322,https://datacenters.com/centersquare-sea2-tukwila-campus,Centersquare: SEA2 Tukwila Data Center Campus,"6101 South 180th Street, Tukwila, WA, USA",Centersquare,8.0,2.49,40000.0,72000.0,6101,South 180th Street,Tukwila,WA,47.44091775,-122.25645930708303
324,https://datacenters.com/t5-portland,T5 Data Centers: @Portland Data Center,"4915 NE Starr Blvd, Hillsboro, OR 97124, USA",T5 Data Centers,13.0,16.78,80000.0,124000.0,4915,NE Starr Blvd,Hillsboro,OR,45.555308350000004,-122.93910736674918
325,https://datacenters.com/edgeconnex-chi02-chicago,EdgeConnex: CHI02 Chicago Data Center,"2021 Lunt Avenue, Elk Grove Village, IL, USA",EdgeConnex,6.0,2.49,,19875.0,2021,Lunt Avenue,Elk Grove Village,IL,42.001494699999995,-87.95256341129048
326,https://datacenters.com/cyrusone-cin6-florence,CyrusOne: CIN6 Florence Data Center,"7200 Industrial Road, Florence, KY 41042, USA",CyrusOne,4.0,4.98,55000.0,140000.0,7200,Industrial Road,Florence,KY,38.980526439718815,-84.6325524743331
327,https://datacenters.com/365-ca1-rancho-cordova,365 Data Centers: CA1 Rancho Cordova Data Center,"11085 Sun Center Drive, Rancho Cordova, CA, USA",365 Data Centers,5.0,18.02,30248.0,69048.0,11085,Sun Center Drive,Rancho Cordova,CA,38.59550423752889,-121.27283894629873
329,https://datacenters.com/dastor-llc-wilmington,"DaSTOR, LLC: Wilmington Data Center","1201 North Market Street, Wilmington, DE 19801, USA","DaSTOR, LLC",,18.02,23000.0,78000.0,1201,North Market Street,Wilmington,DE,39.747482,-75.546639
330,https://datacenters.com/123net-detroit-dc1,123NET: Detroit Data Center (DC1),"24700 Northwestern Hwy, Southfield, MI 48075, USA",123NET,7.0,18.65,80000.0,136000.0,24700,Northwestern Hwy,Southfield,MI,42.470234471661115,-83.23929762867999
331,https://datacenters.com/rackspace-nyc2-new-york-metro,Rackspace: NYC2 New York Metro Data Center,"202-216 Campus Drive, Franklin Township, NJ, USA",Rackspace,2.4,21.13,,35000.0,,202-216 Campus Drive,Franklin Township,NJ,40.545757992802784,-74.54030968092272
333,https://datacenters.com/equinix-cu2-culpeper,Equinix: CU2 Culpeper Data Center,"18155 Technology Drive, Culpeper, VA, USA",Equinix,11.25,44.12,62393.0,105980.0,18155,Technology Drive,Culpeper,VA,38.4551359,-77.9780171
335,https://datacenters.com/centersquare-sfo1-santa-clara-campus,Centersquare: SFO1 Santa Clara Data Center Campus,"2401 Walsh Avenue, Santa Clara, CA, USA",Centersquare,8.0,1.87,168500.0,271872.0,2401,Walsh Avenue,Santa Clara,CA,37.37145735,-121.96968428399869
336,https://datacenters.com/amazon-aws-iad13-ashburn,Amazon AWS: IAD13 Ashburn,"43790 Devin Shafron Drive, Ashburn, VA 20147, USA",Amazon AWS,,4.35,,,43790,Devin Shafron Drive,Ashburn,VA,39.0050186,-77.48566277467961
337,https://datacenters.com/aligned-energy-frederick-county-maryland-hyperscale-campus,"Aligned Data Centers: Frederick County, Maryland Hyperscale Campus","Frederick, MD, USA",Aligned Data Centers,264.0,32.32,,3300000.0,,Frederick,MD,,39.415779,-77.4127562
338,https://datacenters.com/flexential-denver-englewood,Flexential: Denver - Englewood Data Center,"8636 South Peoria Street, Englewood, CO, USA",Flexential,18.0,22.37,140000.0,240549.0,8636,South Peoria Street,Englewood,CO,39.5590234,-104.83753647066754
339,https://datacenters.com/scalematrix-san-diego-us-west-01,ScaleMatrix: San Diego Data Center US-West 01,"5775 Kearny Villa Road, San Diego, CA, USA",ScaleMatrix,20.0,8.08,,50000.0,5775,Kearny Villa Road,San Diego,CA,32.83772875,-117.13263900477503
341,https://datacenters.com/expedient-baltimore-owings-mills,Expedient: Baltimore Owings Mills Data Center,"11155 Red Run Blvd, Owings Mills, MD, USA",Expedient,0.8,18.65,8800.0,21754.0,11155,Red Run Blvd,Owings Mills,MD,39.42709025,-76.8117478207958
342,https://datacenters.com/us-signal-20845-sockeye-pl,US Signal: 20845 Sockeye Pl Data Center,"20845 Sockeye Pl, Bend, OR 97701, USA",US Signal,,237.37,,30000.0,20845,Sockeye Pl,Bend,OR,44.08666096209186,-121.28278216906476
343,https://datacenters.com/lumen-new-york-7,Lumen: New York 7 Data Center,"601 West 26th Street, New York, NY, USA",Lumen,,6.84,20000.0,73822.0,601,West 26th Street,New York,NY,40.75164855,-74.00671517561983
344,https://datacenters.com/qts-miami,QTS Data Centers: Miami Data Center,"11234 Northwest 20th Street, Miami, FL, USA",QTS Data Centers,2.0,4.98,20000.0,38000.0,11234,Northwest 20th Street,Miami,FL,25.79153285,-80.37955957574127
346,https://datacenters.com/1547-critical-systems-realty-ptor1-portland,1547 Critical Systems Realty: PTOR1 Portland Data Center,"921 Southwest Washington Street, Portland, OR, USA",1547 Critical Systems Realty,8.0,6.22,81906.0,302262.0,921,Southwest Washington Street,Portland,OR,45.5214889,-122.680807
347,https://datacenters.com/databank-ord3-mount-prospect,DataBank: ORD3 Mount Prospect Data Center,"800 East Business Center Drive, Mount Prospect, IL, USA",DataBank,2.05,6.84,28950.0,81600.0,800,East Business Center Drive,Mount Prospect,IL,42.075809999761965,-87.92573603674529
348,https://datacenters.com/centersquare-phx1-phoenix-campus,Centersquare: PHX1 Phoenix Data Center Campus,"615 North 48th Street, Phoenix, AZ, USA",Centersquare,27.0,1.25,145000.0,145000.0,615,North 48th Street,Phoenix,AZ,33.4547001,-111.97624000293213
351,https://datacenters.com/aligned-energy-slc-02-salt-lake-city,Aligned Data Centers: SLC-02 Salt Lake City,"3333 West 9000 South, West Jordan, UT, USA",Aligned Data Centers,48.0,13.68,,240000.0,3333,West 9000 South,West Jordan,UT,40.58791487399346,-112.01901212562954
352,https://datacenters.com/digital-realty-dallas-dfw16,Digital Realty: Dallas DFW16 Data Center,"1232 Alma Road, Richardson, TX, USA",Digital Realty,12.0,19.3,,105726.0,1232,Alma Road,Richardson,TX,32.966006050000004,-96.71559586613668
353,https://datacenters.com/equinix-at5-norcross,Equinix: AT5 Norcross Data Center,"2836 Peterson Place Northwest, Norcross, GA, USA",Equinix,,23.0,21337.0,40949.0,2836,Peterson Place Northwest,Norcross,GA,33.93792996817697,-84.22615602386999
354,https://datacenters.com/cologix-dal1-dallas,Cologix: DAL1 Dallas Data Center,"1950 North Stemmons Freeway, Dallas, TX, USA",Cologix,,7.46,28000.0,28000.0,1950,North Stemmons Freeway,Dallas,TX,32.800965950000005,-96.81952300449768
355,https://datacenters.com/cologix-col2-columbus,Cologix: COL2 Columbus Data Center,"555 Scherers Court, Columbus, OH, USA",Cologix,,9.95,20000.0,20000.0,555,Scherers Court,Columbus,OH,40.11646909314298,-83.00200765678865
356,https://datacenters.com/hivelocity-nyc1-new-york-city,Hivelocity: NYC1 New York City Data Center,"7 Teleport Drive, Staten Island, NY, USA",Hivelocity,,5.6,,,7,Teleport Drive,Staten Island,NY,40.60454853443792,-74.17789856456419
357,https://datacenters.com/amazon-aws-22945-international-dr,Amazon AWS: 22945 International Dr,"22945 International Dr, Sterling, VA 20166, USA",Amazon AWS,,2.49,,155000.0,22945,International Dr,Sterling,VA,38.98158205,-77.42736939375345
358,https://datacenters.com/digital-realty-dallas-dfw26,Digital Realty: Dallas DFW26 Data Center,"2501 Texas 121, Lewisville, TX, USA",Digital Realty,2.4,12.4,,831372.0,2501,Texas 121,Lewisville,TX,33.029223421712054,-96.99124833177285
359,https://datacenters.com/netrality-900-walnut-st-louis,Netrality Data Centers: 900 Walnut St. Louis Data Center,"900 Walnut St, St. Louis, MO, USA",Netrality Data Centers,13.0,12.43,27000.0,120586.0,900,Walnut St,St. Louis,MO,38.6254795,-90.19521772673889
361,https://datacenters.com/equinix-da2-dallas,Equinix: DA2 Dallas Data Center,"1950 North Stemmons Freeway, Dallas, TX, USA",Equinix,60.0,7.46,24542.0,33564.0,1950,North Stemmons Freeway,Dallas,TX,32.800965950000005,-96.81952300449768
362,https://datacenters.com/switch-austin-1,Switch Data Centers: Austin 1 Data Center,"7401 East Ben White Boulevard, Austin, TX, USA",Switch Data Centers,,1.87,,,7401,East Ben White Boulevard,Austin,TX,30.214973999999998,-97.69497412692968
364,https://datacenters.com/amazon-aws-iad61-south-riding,Amazon AWS: IAD61 South Riding,"43736 Clubber Lane, South Riding, VA, USA",Amazon AWS,,2.49,,146000.0,43736,Clubber Lane,South Riding,VA,38.9165445671506,-77.492607807855
365,https://datacenters.com/evocative-new-york-jfk2,Evocative: New York Data Center (JFK2),"480 N Bedford Rd, Chappaqua, NY 10514, USA",Evocative,,,,38000.0,480,N Bedford Rd,Chappaqua,NY,41.1774816,-73.7512709
366,https://datacenters.com/expedient-memphis,Expedient: Memphis Data Center,"3180 Players Ln, Memphis, TN, USA",Expedient,1.5,10.57,7500.0,35000.0,3180,Players Ln,Memphis,TN,35.06097947268918,-89.78623742612203
367,https://datacenters.com/colocation-america-nydc3-new-york,Colocation America: NYDC3 - New York Data Center,"11 Skyline Dr, Hawthorne, NY, USA",Colocation America,,30.45,40000.0,50000.0,11,Skyline Dr,Hawthorne,NY,41.0883218,-73.81546461666011
368,https://datacenters.com/tierpoint-boston-andover,TierPoint: Boston - Andover Data Center,"15 Shattuck Road, Andover, MA, USA",TierPoint,,23.62,21000.0,92700.0,15,Shattuck Road,Andover,MA,42.6857009,-71.20861397216423
369,https://datacenters.com/digital-realty-dallas-dfw12,Digital Realty: Dallas DFW12 Data Center,"2440 Marsh Lane, Carrollton, TX, USA",Digital Realty,12.0,11.8,60000.0,135250.0,2440,Marsh Lane,Carrollton,TX,32.97802956321839,-96.85545666666667
370,https://datacenters.com/cogent-communications-doral,Cogent Communications: Doral Data Center,"3701 Northwest 82nd Avenue, Doral, FL, USA",Cogent Communications,,2.5,9760.0,9760.0,3701,Northwest 82nd Avenue,Doral,FL,25.8079593,-80.3287021
371,https://datacenters.com/digital-realty-chicago-ch1,Digital Realty: Chicago CH1 Data Center,"2200 Busse Rd, Elk Grove Village, IL, USA",Digital Realty,80.0,3.1,,485000.0,2200,Busse Rd,Elk Grove Village,IL,41.994230099999996,-87.96223156699811
372,https://datacenters.com/stream-chicago-ii,Stream Data Centers: Chicago II Data Center,"1925 Busse Road, Elk Grove Village, IL, USA",Stream Data Centers,32.0,2.49,130000.0,226000.0,1925,Busse Road,Elk Grove Village,IL,41.999124300000005,-87.95776464760965
373,https://datacenters.com/flexential-louisville-downtown,Flexential: Louisville - Downtown Data Center,"752 Barret Ave, Louisville, KY 40204, USA",Flexential,3.09,4.35,8500.0,61080.0,752,Barret Ave,Louisville,KY,38.2425839,-85.73338524069737
375,https://datacenters.com/databank-atl3-atlanta-west-end,DataBank: ATL3 - Atlanta West End Data Center,"1150 White Street Southwest, Atlanta, GA, USA",DataBank,6.0,6.22,47160.0,75000.0,1150,White Street Southwest,Atlanta,GA,33.734356500000004,-84.42663402433111
376,https://datacenters.com/tierpoint-boston-marlborough,TierPoint: Boston - Marlborough Data Center,"34 St Martin Dr, Marlborough, MA, USA",TierPoint,14.25,28.59,50000.0,115000.0,34,St Martin Dr,Marlborough,MA,42.3135391,-71.5803148467057
377,https://datacenters.com/amazon-aws-beach-access,Amazon AWS: Beach Access,"Beach Access Rd, Umatilla, OR 97882, USA",Amazon AWS,,178.34,,,,Beach Access Rd,Umatilla,OR,45.9288760244058,-119.26944264255893
379,https://datacenters.com/cyrusone-aus2-austin,CyrusOne: AUS2 Austin Data Center,"7301 Metropolis Drive, Austin, TX, USA",CyrusOne,9.0,1.25,41000.0,70000.0,7301,Metropolis Drive,Austin,TX,30.205922,-97.69797086824238
381,https://datacenters.com/aptum-technologies-mia-89p,Aptum Technologies: MIA-89P Data Center,"2300 NW 89th Pl, Doral, FL 33172, USA",Aptum Technologies,2.0,3.79,15000.0,50176.0,2300,NW 89th Pl,Doral,FL,25.79547075,-80.34320432924858
382,https://datacenters.com/evocative-phoenix-phx1,Evocative: Phoenix Data Center (PHX1),"2500 West Union Hills Drive, Phoenix, AZ, USA",Evocative,69.0,16.16,,550000.0,2500,West Union Hills Drive,Phoenix,AZ,33.659054749999996,-112.1111594571694
383,https://datacenters.com/amazon-aws-iad76-sterling,Amazon AWS: IAD76 Sterling,"22520 Randolph Drive, Sterling, VA, USA",Amazon AWS,,3.11,,138000.0,22520,Randolph Drive,Sterling,VA,38.9937865,-77.45050930013156
384,https://datacenters.com/365-ta1-tampa,365 Data Centers: TA1 Tampa Data Center,"655 North Franklin Street, Tampa, FL, USA",365 Data Centers,1.6,4.35,30399.0,,655,North Franklin Street,Tampa,FL,27.949597020408163,-82.45868177551021
385,https://datacenters.com/centersquare-abq1-albuquerque-campus,Centersquare: ABQ1 Albuquerque Data Center Campus,"400 Tijeras Avenue Northwest, Albuquerque, NM, USA",Centersquare,6.0,3.73,30000.0,421290.0,400,Tijeras Avenue Northwest,Albuquerque,NM,35.08618885,-106.65171430125426
386,https://datacenters.com/equinix-ho1-houston,Equinix: HO1 Houston Data Center,"1515 Aldine Meadows Road, Houston, TX, USA",Equinix,,3.73,76649.0,108336.0,1515,Aldine Meadows Road,Houston,TX,29.93519837095079,-95.35647981013989
387,https://datacenters.com/amazon-aws-45900-pathfinder-plz,Amazon AWS: 45900 Pathfinder Plz,"45900 Pathfinder Plaza, Sterling, VA 20164, USA",Amazon AWS,,3.73,,,45900,Pathfinder Plaza,Sterling,VA,38.98860285,-77.4116518853442
388,https://datacenters.com/databridge-sites-aurora-chicago,DataBridge Sites: Aurora/Chicago Data Center,"4267 Meridian Parkway, Aurora, Illinois, USA",DataBridge Sites,10.0,21.13,34000.0,70000.0,4267,Meridian Parkway,Aurora,Illinois,41.773010739669814,-88.2173246134588
389,https://datacenters.com/coresite-ch2-chicago,CoreSite: CH2 Chicago Data Center,"1432 South Clinton Street, Chicago, IL, USA",CoreSite,,15.54,,169000.0,1432,South Clinton Street,Chicago,IL,41.8628,-87.64130290236392
390,https://datacenters.com/digital-realty-los-angeles-lax12,Digital Realty: Los Angeles LAX12 Data Center,"2260 E El Segundo Blvd, El Segundo, CA, USA",Digital Realty,18.0,1.9,68000.0,132240.0,2260,E El Segundo Blvd,El Segundo,CA,33.915514,-118.384618492729
391,https://datacenters.com/cyrusone-nym10-stamford,CyrusOne: NYM10 Stamford Data Center,"10 Riverbend Drive South, Stamford, CT, USA",CyrusOne,4.0,32.94,20000.0,57000.0,10,Riverbend Drive South,Stamford,CT,41.0840156,-73.5179119
393,https://datacenters.com/t5-minneapolis,T5 Data Centers: @Minneapolis Data Center,"1001 3rd Avenue South, Minneapolis, MN, USA",T5 Data Centers,10.4,6.84,47000.0,330000.0,1001,3rd Avenue South,Minneapolis,MN,44.972071,-93.270567
394,https://datacenters.com/equinix-da9-irving,Equinix: DA9 Irving Data Center,"2222 East Grauwyler Road, Irving, TX, USA",Equinix,,8.08,36558.0,122205.0,2222,East Grauwyler Road,Irving,TX,32.83062404081633,-96.91295944897959
397,https://datacenters.com/digital-realty-phoenix-phx15,Digital Realty: Phoenix PHX15 Data Center,"2121 South Price Road, Chandler, AZ, USA",Digital Realty,54.0,12.4,508173.0,519000.0,2121,South Price Road,Chandler,AZ,33.27489725,-111.88663791308659
398,https://datacenters.com/cascade-divide-bend,Cascade Divide Data Centers: Bend Data Center,"207 Southwest Columbia Street, Bend, OR, USA",Cascade Divide Data Centers,,239.85,,,207,Southwest Columbia Street,Bend,OR,44.04796450331248,-121.327245
399,https://datacenters.com/365-ma1-marlboro,365 Data Centers: MA1 Marlboro Data Center,"250 Locke Drive, Marlborough, MA, USA",365 Data Centers,2.8,28.59,,64800.0,250,Locke Drive,Marlborough,MA,42.3524553,-71.58604818655945
401,https://datacenters.com/telehouse-new-york-chelsea,Telehouse: New York Chelsea Data Center,"85 10th Avenue, New York, NY, USA",Telehouse,4.15,6.84,60000.0,635000.0,85,10th Avenue,New York,NY,40.7430134,-74.0077865
402,https://datacenters.com/coresite-la2-los-angeles,CoreSite: LA2 Los Angeles Data Center,"900 Alameda Street, Los Angeles, CA, USA",CoreSite,,12.43,,424000.0,900,Alameda Street,Los Angeles,CA,34.0581157,-118.23539385682871
403,https://datacenters.com/flexential-las-vegas-north,Flexential: Las Vegas - North Data Center,"3330 E Lone Mountain Rd, North Las Vegas, NV 89081, USA",Flexential,9.0,11.81,8400.0,111240.0,3330,E Lone Mountain Rd,North Las Vegas,NV,36.24816195,-115.10125444220594
404,https://datacenters.com/involta-independence,Involta: Independence Data Center,"Independence, OH, USA",Involta,1.0,11.19,10000.0,23000.0,,Independence,OH,,41.3816571,-81.6406872
406,https://datacenters.com/atlantic-net-asburn,Atlantic.net: Asburn Data Center,"1807 Michael Faraday Ct, Reston, VA, USA",Atlantic.net,,6.22,,,1807,Michael Faraday Ct,Reston,VA,38.948816550000004,-77.32940527282275
407,https://datacenters.com/365-bu1-buffalo,365 Data Centers: BU1 Buffalo Data Center,"350 Main Street, Buffalo, NY, USA",365 Data Centers,1.33,8.08,19000.0,,350,Main Street,Buffalo,NY,42.8836357,-78.87568862033672
408,https://datacenters.com/1547-critical-systems-realty-chil1-mtc,1547 Critical Systems Realty: CHIL1 MTC Data Center,"40 E Garfield Blvd, Chicago, IL, USA",1547 Critical Systems Realty,5.0,18.65,52000.0,230000.0,40,E Garfield Blvd,Chicago,IL,41.795474549999994,-87.62463389199777
409,https://datacenters.com/rackspace-mci1-kansas-city,Rackspace: MCI1 Kansas City Data Center,"10828 North Airworld Drive, Kansas City, MO, USA",Rackspace,2.5,1.87,15256.0,77550.0,10828,North Airworld Drive,Kansas City,MO,39.29799578232422,-94.67582108715612
410,https://datacenters.com/lightedge-omaha,LightEdge: Omaha Data Center,"1148 American Parkway, Papillion, NE 68046, USA",LightEdge,1.25,11.19,10000.0,21377.0,1148,American Parkway,Papillion,NE,41.15954502040816,-96.02600730612245
411,https://datacenters.com/evocative-atlanta-atl1,Evocative: Atlanta Data Center (ATL1),"250 Williams Street Northwest, Atlanta, GA, USA",Evocative,15.0,10.6,17000.0,36000.0,250,Williams Street Northwest,Atlanta,GA,33.76163914285714,-84.39064993877551
413,https://datacenters.com/centersquare-den2-denver-englewood-campus,Centersquare: DEN2 (Denver) Englewood Data Center Campus,"8534 Concord Center Drive, Englewood, CO, USA",Centersquare,7.2,22.37,98218.0,98218.0,8534,Concord Center Drive,Englewood,CO,39.5608018,-104.83073151699347
414,https://datacenters.com/digital-realty-new-york-ewr12,Digital Realty: New York EWR12 Data Center,"365 South Randolphville Road, Piscataway, NJ, USA",Digital Realty,34.0,17.4,326000.0,730000.0,365,South Randolphville Road,Piscataway,NJ,40.55304865,-74.45922615462723
415,https://datacenters.com/otava-mid-michigan,Otava: Mid Michigan Data Center,"5225 Exchange Drive, Flint, MI, USA",Otava,,1.25,22500.0,32500.0,5225,Exchange Drive,Flint,MI,42.9687373,-83.77966967080265
418,https://datacenters.com/flexential-tampa-west,Flexential: Tampa - West Data Center,"9417 Corporate Lake Dr, Tampa, FL 33634, USA",Flexential,1.81,3.73,8000.0,31600.0,9417,Corporate Lake Dr,Tampa,FL,28.0372991,-82.5399781
420,https://datacenters.com/skybox-austin,Skybox Datacenters: Austin Data Center,"600 New Meister Ln, Pflugerville, Texas 78660, USA",Skybox Datacenters,30.0,19.89,53245.0,141000.0,600,New Meister Ln,Pflugerville,Texas,30.481420250820587,-97.62973449789772
421,https://datacenters.com/nfinit-san-diego,NFINIT: San Diego Data Center,"9725 Scranton Rd, San Diego, CA, USA",NFINIT,2.9,11.19,56432.0,100000.0,9725,Scranton Rd,San Diego,CA,32.896971268602634,-117.20269332121313
422,https://datacenters.com/centersquare-sea1-tukwila-campus,Centersquare: SEA1 Tukwila Data Center Campus,"12301 Tukwila International Boulevard, Tukwila, WA, USA",Centersquare,7.5,2.49,112942.0,112942.0,12301,Tukwila International Boulevard,Tukwila,WA,47.4920054,-122.29325950687618
423,https://datacenters.com/flexential-denver-aurora,Flexential: Denver - Aurora Data Center,"11900 East Cornell Avenue, Aurora, CO, USA",Flexential,6.75,16.16,171000.0,171000.0,11900,East Cornell Avenue,Aurora,CO,39.66104585,-104.84949855373583
424,https://datacenters.com/digital-realty-new-york-jfk12,Digital Realty: New York JFK12 Data Center,"60 Hudson Street, New York, NY, USA",Digital Realty,,8.7,,164000.0,60,Hudson Street,New York,NY,40.7176412,-74.00827524446427
425,https://datacenters.com/databank-dfw4-dallas-empire-central,DataBank: DFW4 - Dallas Empire Central Data Center,"1100 Empire Central Place, Dallas, TX, USA",DataBank,4.0,10.57,35900.0,65000.0,1100,Empire Central Place,Dallas,TX,32.8217451,-96.8736321775884
426,https://datacenters.com/sba-edge-jacksonville,SBA Edge: Jacksonville Data Center,"421 West Church Street, Jacksonville, FL, USA",SBA Edge,9.0,11.19,,280000.0,421,West Church Street,Jacksonville,FL,30.33129782414535,-81.66256259106859
427,https://datacenters.com/digital-realty-atlanta-atl14,Digital Realty: Atlanta ATL14 Data Center,"250 Williams Street Northwest, Atlanta, GA, USA",Digital Realty,1.6,8.1,18000.0,18000.0,250,Williams Street Northwest,Atlanta,GA,33.76163914285714,-84.39064993877551
428,https://datacenters.com/tierpoint-omaha-midlands,TierPoint: Omaha - Midlands Data Center,"11425 South 84th Street, Papillion, NE 68046, USA",TierPoint,,13.05,15000.0,63000.0,11425,South 84th Street,Papillion,NE,41.13754181481482,-96.042826
429,https://datacenters.com/amazon-aws-45259-sterling,Amazon AWS: 45259 Sterling,"45259 West Severn Way, Sterling, VA, USA",Amazon AWS,,4.98,,146000.0,45259,West Severn Way,Sterling,VA,39.02083854814216,-77.43462568361035
430,https://datacenters.com/centersquare-iad1-sterling-campus,Centersquare: IAD1 Sterling Data Center Campus,"45901 Nokes Boulevard, Sterling, VA, USA",Centersquare,47.0,4.98,556457.0,556457.0,45901,Nokes Boulevard,Sterling,VA,39.02329855,-77.4132159476089
433,https://datacenters.com/quadranet-miami,QuadraNet: Miami Data Center,"36 Northeast 2nd Street, Miami, FL, USA",QuadraNet,2.0,5.6,,162140.0,36,Northeast 2nd Street,Miami,FL,25.7758419,-80.1929625
435,https://datacenters.com/ntt-global-va3-ashburn,NTT Global Data Centers: VA3 Ashburn Data Center,"44664 Guilford Drive, Ashburn, VA, USA",NTT Global Data Centers,6.0,4.98,,245000.0,44664,Guilford Drive,Ashburn,VA,39.022754899999995,-77.45482557908068
436,https://datacenters.com/databank-dfw1-downtown-dallas,DataBank: DFW1 - Downtown Dallas Data Center,"400 South Akard Street, Dallas, TX, USA",DataBank,7.0,15.54,107040.0,270000.0,400,South Akard Street,Dallas,TX,32.778320550000004,-96.7985002392905
437,https://datacenters.com/china-telecom-telehouse-chelsea,China Telecom: Telehouse Chelsea Data Center,"85 10th Avenue, New York, NY 10011, USA",China Telecom,,6.84,,,85,10th Avenue,New York,NY,40.7430134,-74.0077865
438,https://datacenters.com/flexential-portland-hillsboro-2,Flexential: Portland - Hillsboro 2 Data Center,"5737 NE Huffman St, Hillsboro, OR 97124, USA",Flexential,18.0,15.54,50157.0,242683.0,5737,NE Huffman St,Hillsboro,OR,45.5582844,-122.91705637049463
440,https://datacenters.com/us-signal-8675-concord-center-dr,US Signal: 8675 Concord Center Dr Data Center,"8675 Concord Center Dr, Englewood, CO 80112, USA",US Signal,,22.37,,35000.0,8675,Concord Center Dr,Englewood,CO,39.5590659,-104.83353376051849
441,https://datacenters.com/amazon-aws-iad100-manassas,Amazon AWS: IAD100 Manassas,"10321 Tanner Way, Manassas, VA 20110, USA",Amazon AWS,,14.3,,212017.0,10321,Tanner Way,Manassas,VA,38.738228935972735,-77.50330388474131
442,https://datacenters.com/evocative-los-angeles-lax2,Evocative: Los Angeles Data Center (LAX2),"600 West 7th Street, Los Angeles, CA, USA",Evocative,30.0,11.19,30000.0,490000.0,600,West 7th Street,Los Angeles,CA,34.0473499,-118.256999
443,https://datacenters.com/databank-atl4-lithia-springs,DataBank: ATL4 - Lithia Springs Data Center,"200 Selig Dr SW, Atlanta, GA 30336, USA",DataBank,40.0,9.95,156780.0,,200,Selig Dr SW,Atlanta,GA,33.749816300000006,-84.54759969183714
444,https://datacenters.com/cyrusone-chi1-chicago-aurora,CyrusOne: CHI1 Chicago Aurora Data Center,"2905 Diehl Road, Aurora, IL, USA",CyrusOne,48.78,21.13,34000.0,70000.0,2905,Diehl Road,Aurora,IL,41.79805272231562,-88.24663633007307
445,https://datacenters.com/cologix-dal3-dallas,Cologix: DAL3 Dallas Data Center,"1950 North Stemmons Freeway, Dallas, TX, USA",Cologix,,14.3,,13000.0,1950,North Stemmons Freeway,Dallas,TX,32.800965950000005,-96.81952300449768
446,https://datacenters.com/netrality-1301-fannin-houston,Netrality Data Centers: 1301 Fannin Houston Data Center,"1301 Fannin Street, Houston, TX, USA",Netrality Data Centers,26.0,16.16,231700.0,784143.0,1301,Fannin Street,Houston,TX,29.7534328,-95.3657979875635
448,https://datacenters.com/lumen-weehawken-1,Lumen: Weehawken 1 Data Center,"300 Boulevard East, Weehawken, NJ, USA",Lumen,,9.3,7442.0,38017.0,300,Boulevard East,Weehawken,NJ,40.7615218,-74.02602712192159
449,https://datacenters.com/lumen-omaha,Lumen: Omaha Data Center,"6805 Pine Street, Omaha, NE, USA",Lumen,,6.8,10000.0,10000.0,6805,Pine Street,Omaha,NE,41.24366324242424,-96.01682554545454
450,https://datacenters.com/databank-atl1-midtown-atlanta,DataBank: ATL1 - Midtown Atlanta Data Center,"760 W Peachtree St NW, Atlanta, GA, USA",DataBank,5.4,9.33,38260.0,94000.0,760,W Peachtree St NW,Atlanta,GA,33.7753991,-84.3875488
451,https://datacenters.com/us-signal-1655-w-sunrise-blvd,US Signal: 1655 W Sunrise Blvd Data Center,"1655 West Sunrise Boulevard, Gilbert, AZ 85233, USA",US Signal,,11.19,,14000.0,1655,West Sunrise Boulevard,Gilbert,AZ,33.3551689,-111.8268400806063
452,https://datacenters.com/coresite-la3-los-angeles,CoreSite: LA3 Los Angeles Data Center,"200 Bauchet Street, Los Angeles, CA, USA",CoreSite,,12.43,,150000.0,200,Bauchet Street,Los Angeles,CA,34.05849544610792,-118.22943232792187
453,https://datacenters.com/lunavi-at1-atlanta,Lunavi: AT1 Atlanta Data Center,"180 Peachtree Street Northeast, Atlanta, GA, USA",Lunavi,5.0,8.08,2500.0,,180,Peachtree Street Northeast,Atlanta,GA,33.76317315687299,-84.38694032531373
455,https://datacenters.com/amazon-aws-iad58-sterling,Amazon AWS: IAD58 Sterling,"22745 Relocation Drive, Sterling, VA, USA",Amazon AWS,,2.49,,128000.0,22745,Relocation Drive,Sterling,VA,38.99397414662921,-77.4348093883778
456,https://datacenters.com/digital-realty-portland-pdx12,Digital Realty: Portland PDX12 Data Center,"5870 Northeast Schaaf Street, Hillsboro, OR 97124, USA",Digital Realty,32.0,15.54,,560000.0,5870,Northeast Schaaf Street,Hillsboro,OR,45.569443582543876,-122.9231297479169
457,https://datacenters.com/ovhcloud-hil1,OVHCloud: HIL1 Data Center,"1300 NE 25th Ave, Hillsboro, Oregon 97124, USA",OVHCloud,,17.4,,,1300,NE 25th Ave,Hillsboro,Oregon,45.534049100000004,-122.95649680410529
458,https://datacenters.com/cologix-dal2-dallas,Cologix: DAL2 Dallas Data Center,"1950 North Stemmons Freeway, Dallas, TX, USA",Cologix,,7.46,12000.0,12000.0,1950,North Stemmons Freeway,Dallas,TX,32.800965950000005,-96.81952300449768
459,https://datacenters.com/tpx-communications-sacramento,TPx Communications: Sacramento Data Center,"1099 15th Street, Sacramento, CA, USA",TPx Communications,,4.35,,,1099,15th Street,Sacramento,CA,38.578011,-121.486633
460,https://datacenters.com/iron-mountain-va-6-northern-virginia,Iron Mountain Data Centers: VA-6 - Northern Virginia Data Center,"11891 Sudley Manor Drive, Manassas, VA, USA",Iron Mountain Data Centers,32.0,12.43,,230000.0,11891,Sudley Manor Drive,Manassas,VA,38.7681428,-77.53864816228469
461,https://datacenters.com/qts-sacramento,QTS Data Centers: Sacramento Data Center,"1100 North Market Boulevard, Sacramento, CA, USA",QTS Data Centers,4.0,6.22,46000.0,92000.0,1100,North Market Boulevard,Sacramento,CA,38.646312,-121.48627223043131
462,https://datacenters.com/lumen-bakersfield-2,Lumen: Bakersfield 2 Data Center,"1430 Truxtun Ave, Bakersfield, CA, USA",Lumen,,104.4,,4917.0,1430,Truxtun Ave,Bakersfield,CA,35.37341591836735,-119.01802897959183
463,https://datacenters.com/nfinit-lightwave,NFINIT: Lightwave Data Center,"9305 Lightwave Avenue, San Diego, CA, USA",NFINIT,1.7,7.46,58335.0,80100.0,9305,Lightwave Avenue,San Diego,CA,32.827858649999996,-117.12992659595538
465,https://datacenters.com/cologix-jax1-jacksonville,Cologix: JAX1 Jacksonville Data Center,"421 West Church Street, Jacksonville, FL, USA",Cologix,,11.19,10200.0,10200.0,421,West Church Street,Jacksonville,FL,30.33129782414535,-81.66256259106859
466,https://datacenters.com/directlink-technologies-reading-pa,Direct LTx: Reading PA Data Center,"2561 Bernville Road, Reading, PA, USA",Direct LTx,6.0,52.2,110000.0,300000.0,2561,Bernville Road,Reading,PA,40.3809499,-75.9823925715146
467,https://datacenters.com/lumen-birmingham-1-364f5389-ea50-4369-8fac-31408f894ca9,Lumen: Birmingham 1 Data Center,"401 6th Street North, Birmingham, AL, USA",Lumen,,5.6,4512.0,10000.0,401,6th Street North,Birmingham,AL,33.508175,-86.826547
468,https://datacenters.com/aligned-energy-dallas,Aligned Data Centers: Dallas Data Center,"2800 Summit Ave, Plano, TX, USA",Aligned Data Centers,60.0,21.75,52700.0,375000.0,2800,Summit Ave,Plano,TX,33.00975493708304,-96.67843228299641
469,https://datacenters.com/equinix-ph1-philadelphia,Equinix: PH1 Philadelphia Data Center,"401 North Broad Street, Philadelphia, PA, USA",Equinix,0.3,6.84,26779.0,47692.0,401,North Broad Street,Philadelphia,PA,39.9598694,-75.16081442465776
470,https://datacenters.com/oracle-us-dod-north-us-gov-chicago-1,Oracle: US DoD North us-gov-chicago-1,"Chicago, IL, USA",Oracle,,15.54,,,,Chicago,IL,,41.8755616,-87.6244212
471,https://datacenters.com/lumen-mclean-1,Lumen: McLean 1 Data Center,"1755 Old Meadow Road, McLean, VA 22102, USA",Lumen,,9.95,15535.0,62904.0,1755,Old Meadow Road,McLean,VA,38.9208538,-77.2115713
472,https://datacenters.com/lumen-cincinnati-1,Lumen: Cincinnati 1 Data Center,"400 Pike Street, Cincinnati, OH, USA",Lumen,,9.3,7059.0,36697.0,400,Pike Street,Cincinnati,OH,39.10190185567011,-84.50318334020618
473,https://datacenters.com/evocative-boston-bos1,Evocative: Boston Data Center (BOS1),"50 Inner Belt Road, Somerville, MA, USA",Evocative,6.0,3.11,21600.0,46000.0,50,Inner Belt Road,Somerville,MA,42.37795725,-71.08031894999999
475,https://datacenters.com/charlotte-colocation-center-charlotte,Charlotte Colocation Center: Charlotte Data Center,"5821 Fairview Rd, Charlotte, NC, USA",Charlotte Colocation Center,,7.46,1680.0,50000.0,5821,Fairview Rd,Charlotte,NC,35.151902847697286,-80.84281227869856
476,https://datacenters.com/turnkey-internet-albany,TurnKey Internet: Albany Data Center,"175 Old Loudon Rd, Latham, NY, USA",TurnKey Internet,,1.87,,,175,Old Loudon Rd,Latham,NY,42.745436350000006,-73.75920168636466
480,https://datacenters.com/hivelocity-atl2-atlanta,Hivelocity: ATL2 Atlanta Data Center,"250 Williams Street Northwest, Atlanta, GA, USA",Hivelocity,,8.08,,,250,Williams Street Northwest,Atlanta,GA,33.76163914285714,-84.39064993877551
481,https://datacenters.com/digital-realty-silicon-valley-sjc29,Digital Realty: Silicon Valley SJC29 Data Center,"1725 Comstock Street, Santa Clara, CA, USA",Digital Realty,6.2,1.2,39643.0,39643.0,1725,Comstock Street,Santa Clara,CA,37.3750232,-121.9580962
482,https://datacenters.com/stack-infrastructure-chi01-chicago,Stack Infrastructure: CHI01 Chicago Data Center,"1441 Touhy Avenue, Elk Grove Village, IL, USA",Stack Infrastructure,40.0,3.11,,221000.0,1441,Touhy Avenue,Elk Grove Village,IL,42.00761564395706,-87.96445220367333
483,https://datacenters.com/qts-ashburn-moran,QTS Data Centers: Ashburn-Moran Data Center,"44874 Moran Road, Sterling, Virginia 20166, USA",QTS Data Centers,6.0,3.11,26820.0,87000.0,44874,Moran Road,Sterling,Virginia,38.999336204187045,-77.43725076518531
484,https://datacenters.com/xyvest-611-wilshire-blvd,Xyvest: 611 Wilshire Blvd Data Center,"611 Wilshire Boulevard, Los Angeles, CA, USA",Xyvest,,11.18,,,611,Wilshire Boulevard,Los Angeles,CA,34.06234691027145,-118.34757900601574
485,https://datacenters.com/vantage-ca1-santa-clara-campus,Vantage Data Centers: CA1 Santa Clara Data Center Campus,"2820 Northwestern Parkway, Santa Clara, CA, USA",Vantage Data Centers,75.0,2.49,335000.0,335000.0,2820,Northwestern Parkway,Santa Clara,CA,37.372569299999995,-121.97365893917444
486,https://datacenters.com/iron-mountain-azs-1-scottsdale,Iron Mountain Data Centers: AZS - 1 - Scottsdale Data Center,"8521 East Princess Drive, Scottsdale, AZ, USA",Iron Mountain Data Centers,5.8,15.54,,121000.0,8521,East Princess Drive,Scottsdale,AZ,33.644590199999996,-111.89575849541507
488,https://datacenters.com/tierpoint-philadelphia,TierPoint: Philadelphia Data Center,"4775 League Island Boulevard, Philadelphia, PA 19112, USA",TierPoint,,3.73,11500.0,25700.0,4775,League Island Boulevard,Philadelphia,PA,39.89248125,-75.16548391131872
489,https://datacenters.com/1547-critical-systems-realty-chwy1-cheyenne,1547 Critical Systems Realty: CHWY1 Cheyenne Data Center,"340 Progress Circle, Cheyenne, Wyoming, USA",1547 Critical Systems Realty,5.0,87.62,42000.0,42000.0,340,Progress Circle,Cheyenne,Wyoming,41.12975077989307,-104.74069313366648
490,https://datacenters.com/databank-act1-waco,DataBank: ACT1 - Waco Data Center,"700 Austin Avenue, Waco, TX, USA",DataBank,0.8,92.59,14210.0,34000.0,700,Austin Avenue,Waco,TX,31.555117,-97.133556
491,https://datacenters.com/365-na1-nashville,365 Data Centers: NA1 Nashville Data Center,"147 4th Avenue North, Nashville, TN, USA",365 Data Centers,1.33,5.6,19656.0,,147,4th Avenue North,Nashville,TN,36.16185290551425,-86.77787596742111
492,https://datacenters.com/digital-realty-silicon-valley-oak10,Digital Realty: Silicon Valley OAK10 Data Center,"720 2nd Street, Oakland, CA, USA",Digital Realty,14.5,13.0,121220.0,122000.0,720,2nd Street,Oakland,CA,37.7992148,-122.2829762341164
493,https://datacenters.com/dsm-winter-haven,DSM: Winter Haven Data Center,"200 Avenue B Northwest, Winter Haven, FL, USA",DSM,,37.91,33000.0,33000.0,200,Avenue B Northwest,Winter Haven,FL,28.023873,-81.729009
494,https://datacenters.com/flexential-philadelphia-collegeville,Flexential: Philadelphia - Collegeville Data Center,"101 Troutman Road, Collegeville, PA, USA",Flexential,7.2,,203703.0,203703.0,101,Troutman Road,Collegeville,PA,40.1522249,-75.47766472123286
495,https://datacenters.com/evocative-dallas-dal1,Evocative: Dallas Data Center (DAL1),"2800 Summit Avenue, Plano, TX, USA",Evocative,30.0,21.75,,300000.0,2800,Summit Avenue,Plano,TX,33.00975493708304,-96.67843228299641
496,https://datacenters.com/digital-realty-atlanta-atl11,Digital Realty: Atlanta ATL11 Data Center,"101 Aquila Way, Austell, GA 30168, USA",Digital Realty,28.8,11.19,,313000.0,101,Aquila Way,Austell,GA,33.74656255,-84.57973928392062
497,https://datacenters.com/cologix-jax2-jacksonville,Cologix: JAX2 Jacksonville Data Center,"4800 Spring Park Road, Jacksonville, FL, USA",Cologix,,15.54,125000.0,125000.0,4800,Spring Park Road,Jacksonville,FL,30.2732365,-81.6139148
500,https://datacenters.com/flexential-fort-lauderdale,Flexential: Fort Lauderdale Data Center,"5301 Northwest 33rd Avenue, Fort Lauderdale, FL, USA",Flexential,3.15,8.7,22000.0,64164.0,5301,Northwest 33rd Avenue,Fort Lauderdale,FL,26.190085699999997,-80.1932966509257
501,https://datacenters.com/qts-santa-clara,QTS Data Centers: Santa Clara Data Center,"2807 Mission College Boulevard, Santa Clara, CA, USA",QTS Data Centers,7.5,3.11,80000.0,135000.0,2807,Mission College Boulevard,Santa Clara,CA,37.38874267985163,-121.96530188522574
502,https://datacenters.com/tierpoint-kansas-city-lenexa,TierPoint: Kansas City - Lenexa Data Center,"14500 West 105th Street, Lenexa, KS, USA",TierPoint,,24.24,11000.0,58000.0,14500,West 105th Street,Lenexa,KS,38.940002,-94.759005
503,https://datacenters.com/365-dt1-detroit,365 Data Centers: DT1 Detroit Data Center,"24660 Lahser Road, Southfield, MI, USA",365 Data Centers,0.8,18.02,,12000.0,24660,Lahser Road,Southfield,MI,42.4691727860455,-83.26048443144182
504,https://datacenters.com/deft-a-summit-company-elk-grove-village-il,"Deft, a Summit company: Elk Grove Village, IL Data Center","2200 Busse Road, Elk Grove Village, IL, USA","Deft, a Summit company",36.4,2.89,275000.0,485000.0,2200,Busse Road,Elk Grove Village,IL,41.994230099999996,-87.96223156699811
505,https://datacenters.com/365-pa1-philadelphia,365 Data Centers: PA1 Philadelphia Data Center,"1500 Spring Garden Street, Philadelphia, PA, USA",365 Data Centers,10.0,6.84,70650.0,135083.0,1500,Spring Garden Street,Philadelphia,PA,39.9621861,-75.16400961399813
507,https://datacenters.com/365-ch6-chicago,365 Data Centers: CH6 Chicago Data Center,"427 South LaSalle Street, Chicago, IL, USA",365 Data Centers,1.72,15.54,,10000.0,427,South LaSalle Street,Chicago,IL,41.87633285,-87.63148077036223
510,https://datacenters.com/netrality-717-south-wells-chicago,Netrality Data Centers: 717 South Wells Chicago Data Center,"717 South Wells Street, Chicago, IL, USA",Netrality Data Centers,5.7,15.54,26100.0,100000.0,717,South Wells Street,Chicago,IL,41.8725675,-87.6335124
511,https://datacenters.com/segra-charlotte-one-2,Segra: Charlotte One Data Center,"3100 International Airport Drive, Charlotte, NC, USA",Segra,0.5,1.87,5000.0,7800.0,3100,International Airport Drive,Charlotte,NC,35.193413,-80.937813
512,https://datacenters.com/lumen-minnetonka-1,Lumen: Minnetonka 1 Data Center,"5510 Feltl Road, Hopkins, MN, USA",Lumen,,9.95,12000.0,12000.0,5510,Feltl Road,Hopkins,MN,44.90623020009234,-93.42081514208601
515,https://datacenters.com/evocative-redondo-beach-lax14,Evocative: Redondo Beach Data Center (LAX14),"3690 Redondo Beach Avenue, Redondo Beach, CA 90278, USA",Evocative,7.5,6.6,24345.0,104000.0,3690,Redondo Beach Avenue,Redondo Beach,CA,33.889492585644724,-118.37004457097677
516,https://datacenters.com/flexential-tampa-north,Flexential: Tampa - North Data Center,"8350 Parkedge Dr, Tampa, FL 33637, USA",Flexential,3.0,11.81,60166.0,60166.0,8350,Parkedge Dr,Tampa,FL,28.0738377,-82.3683618993294
517,https://datacenters.com/lumen-los-angeles,Lumen: Los Angeles Data Center,"818 W 7th St, Los Angeles, CA, USA",Lumen,,11.2,33430.0,75031.0,818,W 7th St,Los Angeles,CA,33.73795510204082,-118.29503263265306
518,https://datacenters.com/element-critical-chicago-two,Element Critical: Chicago Two Data Center,"341 Haynes Dr, Wood Dale, IL, USA",Element Critical,5.0,3.11,26000.0,45000.0,341,Haynes Dr,Wood Dale,IL,41.97422775,-87.96717559139857
519,https://datacenters.com/databank-slc1-downtown-salt-lake-city,DataBank: SLC1 Downtown Salt Lake City Data Center,"179 Social Hall Ave, Salt Lake City, UT 84111, USA",DataBank,0.5,4.98,10610.0,16000.0,179,Social Hall Ave,Salt Lake City,UT,40.7685233,-111.8858522748673
520,https://datacenters.com/tpx-communications-dallas,TPx Communications: Dallas Data Center,"717 North Harwood Street, Dallas, TX, USA",TPx Communications,,19.27,,,717,North Harwood Street,Dallas,TX,32.785532399999994,-96.79804231034126
521,https://datacenters.com/cyrusone-cin4-cincinnati-hamilton,CyrusOne: CIN4 Cincinnati Hamilton Data Center,"103 Knightsbridge Drive, Hamilton, OH, USA",CyrusOne,9.5,23.62,83000.0,83000.0,103,Knightsbridge Drive,Hamilton,OH,39.387044,-84.565783
522,https://datacenters.com/digital-realty-silicon-valley-sjc11,Digital Realty: Silicon Valley SJC11 Data Center,"3011 Lafayette Street, Santa Clara, CA, USA",Digital Realty,9.0,1.2,,90800.0,3011,Lafayette Street,Santa Clara,CA,37.37642765,-121.94847572664037
523,https://datacenters.com/lumen-tulsa-1,Lumen: Tulsa 1 Data Center,"18 West Archer Street, Tulsa, OK, USA",Lumen,,6.22,1600.0,10000.0,18,West Archer Street,Tulsa,OK,36.15713366666667,-95.993394
524,https://datacenters.com/lumen-kansas-city-2-2,Lumen: Kansas City 2 Data Center,"1212 East 19th Street, Kansas City, MO, USA",Lumen,,16.16,13000.0,50000.0,1212,East 19th Street,Kansas City,MO,39.09067965,-94.56839290913564
525,https://datacenters.com/equinix-mi2-miami,Equinix: MI2 Miami Data Center,"36 Northeast 2nd Street, Miami, FL, USA",Equinix,0.3,5.6,10942.0,17545.0,36,Northeast 2nd Street,Miami,FL,25.7758419,-80.1929625
526,https://datacenters.com/evocative-emeryville-oak1,Evocative: Emeryville Data Center (OAK1),"1400 65th Street, Emeryville, CA, USA",Evocative,,16.16,15042.0,15042.0,1400,65th Street,Emeryville,CA,37.846323,-122.29435
527,https://datacenters.com/flexential-charlotte-north,Flexential: Charlotte - North Data Center,"10105 David Taylor Drive, Charlotte, NC, USA",Flexential,3.3,12.43,10000.0,62589.0,10105,David Taylor Drive,Charlotte,NC,35.329863,-80.76579057556785
528,https://datacenters.com/cyrusone-nva5-northern-virginia-sterling,CyrusOne: NVA5 Northern Virginia Sterling Data Center,"21350 Pacific Blvd, Sterling, VA, USA",CyrusOne,105.0,5.6,,90000.0,21350,Pacific Blvd,Sterling,VA,39.024120350000004,-77.43409999643099
530,https://datacenters.com/flexential-portland-hillsboro-1,Flexential: Portland - Hillsboro 1 Data Center,"3935 NE Aloclek Dr, Hillsboro, OR 97124, USA",Flexential,5.3,14.3,138000.0,85388.0,3935,NE Aloclek Dr,Hillsboro,OR,45.5489278,-122.89245438644275
531,https://datacenters.com/quonix-philadelphia-locust-st,Quonix: Philadelphia - Locust St,"2401 Locust Street, Philadelphia, PA, USA",Quonix,,5.6,,4000.0,2401,Locust Street,Philadelphia,PA,39.95035505,-75.1800072301968
532,https://datacenters.com/equinix-at2-atlanta-ibx,Equinix: AT2 Atlanta IBX Data Center,"56 Marietta Street NorthWest, Atlanta, GA, USA",Equinix,0.9,8.08,6479.0,14003.0,56,Marietta Street NorthWest,Atlanta,GA,33.762757258636405,-84.39693476338218
533,https://datacenters.com/amazon-aws-iad78-44862-interconnection-plaza,Amazon AWS: IAD78 44862 Interconnection Plaza,"44862 Interconnection Plz, Ashburn, VA 20147, USA",Amazon AWS,,5.6,,142000.0,44862,Interconnection Plz,Ashburn,VA,39.02710865,-77.45282885
534,https://datacenters.com/tierpoint-baltimore,TierPoint: Baltimore Data Center,"1401 Russell Street, Baltimore, MD, USA",TierPoint,,6.84,14000.0,28000.0,1401,Russell Street,Baltimore,MD,39.2754558,-76.62550986602082
536,https://datacenters.com/equinix-da3-dallas,Equinix: DA3 Dallas Data Center,"1950 North Stemmons Freeway, Dallas, TX, USA",Equinix,60.0,7.46,25869.0,50738.0,1950,North Stemmons Freeway,Dallas,TX,32.800965950000005,-96.81952300449768
