{
"type": "FeatureCollection",
"name": "substations",
"crs": { "type": "name", "properties": { "name": "urn:ogc:def:crs:OGC:1.3:CRS84" } },
"features": [
{ "type": "Feature", "properties": { "OBJECTID": 1, "INS_ID": null, "NOMELONGO": null, "AGE_ID_PRIN": null, "AGE_PRIN_NOM": null, "DTPREVISTA": null, "STR_DTPREVISTA": null, "DTENTRADA": null, "STR_DTENTRADA": null }, "geometry": { "type": "Point", "coordinates": [ -50.283333003999985, -29.958333000183117 ] } },
{ "type": "Feature", "properties": { "OBJECTID": 2, "INS_ID": null, "NOMELONGO": null, "AGE_ID_PRIN": null, "AGE_PRIN_NOM": null, "DTPREVISTA": null, "STR_DTPREVISTA": null, "DTENTRADA": null, "STR_DTENTRADA": null }, "geometry": { "type": "Point", "coordinates": [ -50.300000003999969, -29.925000004183648 ] } },
{ "type": "Feature", "properties": { "OBJECTID": 3, "INS_ID": null, "NOMELONGO": null, "AGE_ID_PRIN": null, "AGE_PRIN_NOM": null, "DTPREVISTA": null, "STR_DTPREVISTA": null, "DTENTRADA": null, "STR_DTENTRADA": null }, "geometry": { "type": "Point", "coordinates": [ -50.252139001999979, -29.953500002183201 ] } },
{ "type": "Feature", "properties": { "OBJECTID": 4, "INS_ID": null, "NOMELONGO": null, "AGE_ID_PRIN": null, "AGE_PRIN_NOM": null, "DTPREVISTA": null, "STR_DTPREVISTA": null, "DTENTRADA": null, "STR_DTENTRADA": null }, "geometry": { "type": "Point", "coordinates": [ -50.255306004999966, -29.980972007182736 ] } },
{ "type": "Feature", "properties": { "OBJECTID": 5, "INS_ID": null, "NOMELONGO": null, "AGE_ID_PRIN": null, "AGE_PRIN_NOM": null, "DTPREVISTA": null, "STR_DTPREVISTA": null, "DTENTRADA": null, "STR_DTENTRADA": null }, "geometry": { "type": "Point", "coordinates": [ -41.120417005999968, -9.882667004680496 ] } },
{ "type": "Feature", "properties": { "OBJECTID": 6, "INS_ID": null, "NOMELONGO": null, "AGE_ID_PRIN": null, "AGE_PRIN_NOM": null, "DTPREVISTA": null, "STR_DTPREVISTA": null, "DTENTRADA": null, "STR_DTENTRADA": null }, "geometry": { "type": "Point", "coordinates": [ -41.105167000999984, -9.890722006680244 ] } },
{ "type": "Feature", "properties": { "OBJECTID": 7, "INS_ID": null, "NOMELONGO": null, "AGE_ID_PRIN": null, "AGE_PRIN_NOM": null, "DTPREVISTA": null, "STR_DTPREVISTA": null, "DTENTRADA": null, "STR_DTENTRADA": null }, "geometry": { "type": "Point", "coordinates": [ -41.089528001999952, -9.853306002681432 ] } },
{ "type": "Feature", "properties": { "OBJECTID": 8, "INS_ID": null, "NOMELONGO": null, "AGE_ID_PRIN": null, "AGE_PRIN_NOM": null, "DTPREVISTA": null, "STR_DTPREVISTA": null, "DTENTRADA": null, "STR_DTENTRADA": null }, "geometry": { "type": "Point", "coordinates": [ -42.351059004999975, -12.312401004606352 ] } },
{ "type": "Feature", "properties": { "OBJECTID": 9, "INS_ID": null, "NOMELONGO": null, "AGE_ID_PRIN": null, "AGE_PRIN_NOM": null, "DTPREVISTA": null, "STR_DTPREVISTA": null, "DTENTRADA": null, "STR_DTENTRADA": null }, "geometry": { "type": "Point", "coordinates": [ -42.362583003999987, -12.278482004607396 ] } },
{ "type": "Feature", "properties": { "OBJECTID": 10, "INS_ID": null, "NOMELONGO": null, "AGE_ID_PRIN": null, "AGE_PRIN_NOM": null, "DTPREVISTA": null, "STR_DTPREVISTA": null, "DTENTRADA": null, "STR_DTENTRADA": null }, "geometry": { "type": "Point", "coordinates": [ -42.338520004999964, -12.351217999605174 ] } },
{ "type": "Feature", "properties": { "OBJECTID": 11, "INS_ID": null, "NOMELONGO": null, "AGE_ID_PRIN": null, "AGE_PRIN_NOM": null, "DTPREVISTA": null, "STR_DTPREVISTA": null, "DTENTRADA": null, "STR_DTENTRADA": null }, "geometry": { "type": "Point", "coordinates": [ -40.270897700999974, -2.814502901907284 ] } },
{ "type": "Feature", "properties": { "OBJECTID": 12, "INS_ID": null, "NOMELONGO": null, "AGE_ID_PRIN": null, "AGE_PRIN_NOM": null, "DTPREVISTA": null, "STR_DTPREVISTA": null, "DTENTRADA": null, "STR_DTENTRADA": null }, "geometry": { "type": "Point", "coordinates": [ -39.960349805999947, -2.861072502905798 ] } },
{ "type": "Feature", "properties": { "OBJECTID": 13, "INS_ID": null, "NOMELONGO": null, "AGE_ID_PRIN": null, "AGE_PRIN_NOM": null, "DTPREVISTA": null, "STR_DTPREVISTA": null, "DTENTRADA": null, "STR_DTENTRADA": null }, "geometry": { "type": "Point", "coordinates": [ -50.198356002999958, -21.213686004362856 ] } },
{ "type": "Feature", "properties": { "OBJECTID": 14, "INS_ID": null, "NOMELONGO": null, "AGE_ID_PRIN": null, "AGE_PRIN_NOM": null, "DTPREVISTA": null, "STR_DTPREVISTA": null, "DTENTRADA": null, "STR_DTENTRADA": null }, "geometry": { "type": "Point", "coordinates": [ -39.678683600999989, -3.019179999900562 ] } },
{ "type": "Feature", "properties": { "OBJECTID": 15, "INS_ID": null, "NOMELONGO": null, "AGE_ID_PRIN": null, "AGE_PRIN_NOM": null, "DTPREVISTA": null, "STR_DTPREVISTA": null, "DTENTRADA": null, "STR_DTENTRADA": null }, "geometry": { "type": "Point", "coordinates": [ -50.288673504999956, -29.963401601183033 ] } },
{ "type": "Feature", "properties": { "OBJECTID": 16, "INS_ID": null, "NOMELONGO": null, "AGE_ID_PRIN": null, "AGE_PRIN_NOM": null, "DTPREVISTA": null, "STR_DTPREVISTA": null, "DTENTRADA": null, "STR_DTENTRADA": null }, "geometry": { "type": "Point", "coordinates": [ -50.280436001999988, -29.928197004183591 ] } },
{ "type": "Feature", "properties": { "OBJECTID": 17, "INS_ID": null, "NOMELONGO": null, "AGE_ID_PRIN": null, "AGE_PRIN_NOM": null, "DTPREVISTA": null, "STR_DTPREVISTA": null, "DTENTRADA": null, "STR_DTENTRADA": null }, "geometry": { "type": "Point", "coordinates": [ -50.312747001999973, -29.955006003183168 ] } },
{ "type": "Feature", "properties": { "OBJECTID": 18, "INS_ID": "RNCPD", "NOMELONGO": "SUB CABECO PRETO II                                RN       ", "AGE_ID_PRIN": "AGT", "AGE_PRIN_NOM": "GESTAMP EOLICA AGRESTE SA                                      ", "DTPREVISTA": 1488240000000.0, "STR_DTPREVISTA": "28/02/2017", "DTENTRADA": 1479513600000.0, "STR_DTENTRADA": "19/11/2016" }, "geometry": { "type": "Point", "coordinates": [ -35.985444001999944, -5.475721999820477 ] } },
{ "type": "Feature", "properties": { "OBJECTID": 19, "INS_ID": "GOPEM", "NOMELONGO": "SUB PARQUE DAS EMAS                                GO       ", "AGE_ID_PRIN": "CLG", "AGE_PRIN_NOM": "EQUATORIAL GOIAS DISTRIBUIDORA DE ENERGIA S/A                  ", "DTPREVISTA": null, "STR_DTPREVISTA": null, "DTENTRADA": 959904000000.0, "STR_DTENTRADA": "02/06/2000" }, "geometry": { "type": "Point", "coordinates": [ -52.478889003, -17.412222005460585 ] } },
{ "type": "Feature", "properties": { "OBJECTID": 20, "INS_ID": "MGUSI1", "NOMELONGO": "SUB USIMINAS                                       MG       ", "AGE_ID_PRIN": "USM", "AGE_PRIN_NOM": "USINAS SIDERURGICAS DE MINAS GERAIS S/A  - USIMINAS            ", "DTPREVISTA": null, "STR_DTPREVISTA": null, "DTENTRADA": 959904000000.0, "STR_DTENTRADA": "02/06/2000" }, "geometry": { "type": "Point", "coordinates": [ -42.549849801, -19.484922103405982 ] } },
{ "type": "Feature", "properties": { "OBJECTID": 21, "INS_ID": "BAUPR", "NOMELONGO": "SUB UTE PROSPERIDADE                               BA       ", "AGE_ID_PRIN": "IME", "AGE_PRIN_NOM": "IMETAME ENERGIA LTDA                                           ", "DTPREVISTA": 1517356800000.0, "STR_DTPREVISTA": "31/01/2018", "DTENTRADA": 1539648000000.0, "STR_DTENTRADA": "16/10/2018" }, "geometry": { "type": "Point", "coordinates": [ -38.207200005999987, -12.499200001600748 ] } },
{ "type": "Feature", "properties": { "OBJECTID": 22, "INS_ID": null, "NOMELONGO": null, "AGE_ID_PRIN": null, "AGE_PRIN_NOM": null, "DTPREVISTA": null, "STR_DTPREVISTA": null, "DTENTRADA": null, "STR_DTENTRADA": null }, "geometry": { "type": "Point", "coordinates": [ -37.648088000999962, -4.587970003849332 ] } },
{ "type": "Feature", "properties": { "OBJECTID": 23, "INS_ID": null, "NOMELONGO": null, "AGE_ID_PRIN": null, "AGE_PRIN_NOM": null, "DTPREVISTA": null, "STR_DTPREVISTA": null, "DTENTRADA": null, "STR_DTENTRADA": null }, "geometry": { "type": "Point", "coordinates": [ -36.9375, -5.016667000835376 ] } },
{ "type": "Feature", "properties": { "OBJECTID": 24, "INS_ID": null, "NOMELONGO": null, "AGE_ID_PRIN": null, "AGE_PRIN_NOM": null, "DTPREVISTA": null, "STR_DTPREVISTA": null, "DTENTRADA": null, "STR_DTENTRADA": null }, "geometry": { "type": "Point", "coordinates": [ -48.80822220400001, -22.538494400331334 ] } },
{ "type": "Feature", "properties": { "OBJECTID": 25, "INS_ID": "ACCS  ", "NOMELONGO": "SUB CRUZEIRO DO SUL                                AC       ", "AGE_ID_PRIN": "ASP", "AGE_PRIN_NOM": "TRANSMISSORA ACRE SPE S.A.                                     ", "DTPREVISTA": 1732924800000.0, "STR_DTPREVISTA": "30/11/2024", "DTENTRADA": 1734307200000.0, "STR_DTENTRADA": "16/12/2024" }, "geometry": { "type": "Point", "coordinates": [ -72.639006003999953, -7.721061005748404 ] } },
{ "type": "Feature", "properties": { "OBJECTID": 26, "INS_ID": "ACFJ  ", "NOMELONGO": "SUB FEIJO                                          AC       ", "AGE_ID_PRIN": "ASP", "AGE_PRIN_NOM": "TRANSMISSORA ACRE SPE S.A.                                     ", "DTPREVISTA": 1742428800000.0, "STR_DTPREVISTA": "20/03/2025", "DTENTRADA": 1685577600000.0, "STR_DTENTRADA": "01/06/2023" }, "geometry": { "type": "Point", "coordinates": [ -70.260661005999964, -8.306150004729854 ] } },
{ "type": "Feature", "properties": { "OBJECTID": 27, "INS_ID": "ACRB  ", "NOMELONGO": "SUB RIO BRANCO 1                                   AC       ", "AGE_ID_PRIN": "ENT", "AGE_PRIN_NOM": "CENTRAIS ELETRICAS DO NORTE DO BRASIL S/A - ELETRONORTE        ", "DTPREVISTA": null, "STR_DTPREVISTA": null, "DTENTRADA": 662601600000.0, "STR_DTENTRADA": "31/12/1990" }, "geometry": { "type": "Point", "coordinates": [ -67.729444005, -10.010833002676508 ] } },
{ "type": "Feature", "properties": { "OBJECTID": 28, "INS_ID": "ALART ", "NOMELONGO": "SUB ARAPIRACA III                                  AL       ", "AGE_ID_PRIN": "CHF", "AGE_PRIN_NOM": "CHESF - Companhia Hidro Elétrica do São Francisco              ", "DTPREVISTA": 1372464000000.0, "STR_DTPREVISTA": "29/06/2013", "DTENTRADA": 1370736000000.0, "STR_DTENTRADA": "09/06/2013" }, "geometry": { "type": "Point", "coordinates": [ -36.651731006999967, -9.784325003683561 ] } },
{ "type": "Feature", "properties": { "OBJECTID": 29, "INS_ID": "ALMCD ", "NOMELONGO": "SUB MACEIO II                                      AL       ", "AGE_ID_PRIN": "CHF", "AGE_PRIN_NOM": "CHESF - Companhia Hidro Elétrica do São Francisco              ", "DTPREVISTA": 1548892800000.0, "STR_DTPREVISTA": "31/01/2019", "DTENTRADA": 1550361600000.0, "STR_DTENTRADA": "17/02/2019" }, "geometry": { "type": "Point", "coordinates": [ -35.737708001999977, -9.530989005691429 ] } },
{ "type": "Feature", "properties": { "OBJECTID": 30, "INS_ID": "ALMCO ", "NOMELONGO": "SUB MACEIO                                         AL       ", "AGE_ID_PRIN": "CHF", "AGE_PRIN_NOM": "CHESF - Companhia Hidro Elétrica do São Francisco              ", "DTPREVISTA": null, "STR_DTPREVISTA": null, "DTENTRADA": 959904000000.0, "STR_DTENTRADA": "02/06/2000" }, "geometry": { "type": "Point", "coordinates": [ -35.786666706, -9.577611103689977 ] } },
{ "type": "Feature", "properties": { "OBJECTID": 31, "INS_ID": "ALMSI ", "NOMELONGO": "SUB MESSIAS                                        AL       ", "AGE_ID_PRIN": "CHF", "AGE_PRIN_NOM": "CHESF - Companhia Hidro Elétrica do São Francisco              ", "DTPREVISTA": null, "STR_DTPREVISTA": null, "DTENTRADA": 959904000000.0, "STR_DTENTRADA": "02/06/2000" }, "geometry": { "type": "Point", "coordinates": [ -35.846666701, -9.387194402695911 ] } },
{ "type": "Feature", "properties": { "OBJECTID": 32, "INS_ID": "ALPEN ", "NOMELONGO": "SUB PENEDO                                         AL       ", "AGE_ID_PRIN": "CHF", "AGE_PRIN_NOM": "CHESF - Companhia Hidro Elétrica do São Francisco              ", "DTPREVISTA": null, "STR_DTPREVISTA": null, "DTENTRADA": 959904000000.0, "STR_DTENTRADA": "02/06/2000" }, "geometry": { "type": "Point", "coordinates": [ -36.586388900999964, -10.29000000666792 ] } },
{ "type": "Feature", "properties": { "OBJECTID": 33, "INS_ID": "ALRLD ", "NOMELONGO": "SUB RIO LARGO II                                   AL       ", "AGE_ID_PRIN": "CHF", "AGE_PRIN_NOM": "CHESF - Companhia Hidro Elétrica do São Francisco              ", "DTPREVISTA": null, "STR_DTPREVISTA": null, "DTENTRADA": 959904000000.0, "STR_DTENTRADA": "02/06/2000" }, "geometry": { "type": "Point", "coordinates": [ -35.830000005999977, -9.470527805693292 ] } },
{ "type": "Feature", "properties": { "OBJECTID": 34, "INS_ID": "ALSTII", "NOMELONGO": "SUB SANTANA II                                     AL       ", "AGE_ID_PRIN": "BR3", "AGE_PRIN_NOM": "BRE 3 IMPLANTAÇÃO DE SISTEMAS DE TRANSMISSÃO ELÉTRICA SOCIEDADE", "DTPREVISTA": 1647820800000.0, "STR_DTPREVISTA": "21/03/2022", "DTENTRADA": 1632182400000.0, "STR_DTENTRADA": "21/09/2021" }, "geometry": { "type": "Point", "coordinates": [ -37.278713606, -9.365179903696637 ] } },
{ "type": "Feature", "properties": { "OBJECTID": 35, "INS_ID": "AMCRR ", "NOMELONGO": "SUB LECHUGA                                        AM       ", "AGE_ID_PRIN": "MNA", "AGE_PRIN_NOM": "MANAUS TRANSMISSORA DE ENERGIA S.A                             ", "DTPREVISTA": 1370822400000.0, "STR_DTPREVISTA": "10/06/2013", "DTENTRADA": 1372809600000.0, "STR_DTENTRADA": "03/07/2013" }, "geometry": { "type": "Point", "coordinates": [ -59.996719002999946, -2.920107006903819 ] } },
{ "type": "Feature", "properties": { "OBJECTID": 36, "INS_ID": "AMFG  ", "NOMELONGO": "SUB PRESIDENTE FIGUEIREDO                          AM       ", "AGE_ID_PRIN": "EAM", "AGE_PRIN_NOM": "ENERGISA AMAZONAS TRANSMISSORA DE ENERGIA S.A.                 ", "DTPREVISTA": null, "STR_DTPREVISTA": null, "DTENTRADA": 905904000000.0, "STR_DTENTRADA": "16/09/1998" }, "geometry": { "type": "Point", "coordinates": [ -60.025875001999964, -2.034353002932944 ] } },
{ "type": "Feature", "properties": { "OBJECTID": 37, "INS_ID": "AMITR ", "NOMELONGO": "SUB SILVES                                         AM       ", "AGE_ID_PRIN": "MNA", "AGE_PRIN_NOM": "MANAUS TRANSMISSORA DE ENERGIA S.A                             ", "DTPREVISTA": 1370822400000.0, "STR_DTPREVISTA": "10/06/2013", "DTENTRADA": 1372809600000.0, "STR_DTENTRADA": "03/07/2013" }, "geometry": { "type": "Point", "coordinates": [ -58.258903004, -2.684173002911558 ] } },
{ "type": "Feature", "properties": { "OBJECTID": 38, "INS_ID": "AMJTX ", "NOMELONGO": "SUB JORGE TEIXEIRA                                 AM       ", "AGE_ID_PRIN": "EAM", "AGE_PRIN_NOM": "ENERGISA AMAZONAS TRANSMISSORA DE ENERGIA S.A.                 ", "DTPREVISTA": 1396224000000.0, "STR_DTPREVISTA": "31/03/2014", "DTENTRADA": 1394755200000.0, "STR_DTENTRADA": "14/03/2014" }, "geometry": { "type": "Point", "coordinates": [ -59.894232005, -3.021554000900501 ] } },
{ "type": "Feature", "properties": { "OBJECTID": 39, "INS_ID": "AMMN  ", "NOMELONGO": "SUB MANAUS                                         AM       ", "AGE_ID_PRIN": "EAM", "AGE_PRIN_NOM": "ENERGISA AMAZONAS TRANSMISSORA DE ENERGIA S.A.                 ", "DTPREVISTA": null, "STR_DTPREVISTA": null, "DTENTRADA": 662601600000.0, "STR_DTENTRADA": "31/12/1990" }, "geometry": { "type": "Point", "coordinates": [ -59.985278002999962, -3.070555999898879 ] } },
{ "type": "Feature", "properties": { "OBJECTID": 40, "INS_ID": "AMMT  ", "NOMELONGO": "SUB MAUA III                                       AM       ", "AGE_ID_PRIN": "AG ", "AGE_PRIN_NOM": "AMAZONAS GERAÇÃO E TRANSMISSÃO DE ENERGIA SA                   ", "DTPREVISTA": 1404086400000.0, "STR_DTPREVISTA": "30/06/2014", "DTENTRADA": 1401580800000.0, "STR_DTENTRADA": "01/06/2014" }, "geometry": { "type": "Point", "coordinates": [ -59.928506002, -3.119101002897303 ] } },
{ "type": "Feature", "properties": { "OBJECTID": 41, "INS_ID": "AMPAR ", "NOMELONGO": "SUB PARINTINS                                      AM       ", "AGE_ID_PRIN": "TIN", "AGE_PRIN_NOM": "PARINTINS AMAZONAS TRANSMISSORA DE ENERGIA S.A.                ", "DTPREVISTA": 1711065600000.0, "STR_DTPREVISTA": "22/03/2024", "DTENTRADA": 1686700800000.0, "STR_DTENTRADA": "14/06/2023" }, "geometry": { "type": "Point", "coordinates": [ -56.733853004999958, -2.670594006912028 ] } },
{ "type": "Feature", "properties": { "OBJECTID": 42, "INS_ID": "AMTRM ", "NOMELONGO": "SUB TARUMA                                         AM       ", "AGE_ID_PRIN": "EAM", "AGE_PRIN_NOM": "ENERGISA AMAZONAS TRANSMISSORA DE ENERGIA S.A.                 ", "DTPREVISTA": 1774915200000.0, "STR_DTPREVISTA": "31/03/2026", "DTENTRADA": null, "STR_DTENTRADA": null }, "geometry": { "type": "Point", "coordinates": [ -60.057041004, -3.011507004900862 ] } },
{ "type": "Feature", "properties": { "OBJECTID": 43, "INS_ID": "APLAL ", "NOMELONGO": "SUB LARANJAL                                       AP       ", "AGE_ID_PRIN": "MCP", "AGE_PRIN_NOM": "LINHAS DE MACAPÁ TRANSMISSORA DE ENERGIA SA                    ", "DTPREVISTA": 1393545600000.0, "STR_DTPREVISTA": "28/02/2014", "DTENTRADA": 1390262400000.0, "STR_DTENTRADA": "21/01/2014" }, "geometry": { "type": "Point", "coordinates": [ -52.482151001999974, -0.810939006973258 ] } },
{ "type": "Feature", "properties": { "OBJECTID": 44, "INS_ID": "APMCP ", "NOMELONGO": "SUB MACAPA                                         AP       ", "AGE_ID_PRIN": "MCP", "AGE_PRIN_NOM": "LINHAS DE MACAPÁ TRANSMISSORA DE ENERGIA SA                    ", "DTPREVISTA": 1393545600000.0, "STR_DTPREVISTA": "28/02/2014", "DTENTRADA": 1390262400000.0, "STR_DTENTRADA": "21/01/2014" }, "geometry": { "type": "Point", "coordinates": [ -51.121867001, 0.099380999996774 ] } },
{ "type": "Feature", "properties": { "OBJECTID": 45, "INS_ID": "ARPLI ", "NOMELONGO": "SUB PASO DE LOS  LIBRES                            AR       ", "AGE_ID_PRIN": "TNA", "AGE_PRIN_NOM": "Transporte Energia Electrica Distribucion Troncal Noreste      ", "DTPREVISTA": null, "STR_DTPREVISTA": null, "DTENTRADA": 959904000000.0, "STR_DTENTRADA": "02/06/2000" }, "geometry": { "type": "Point", "coordinates": [ -57.079166703, -29.65166670118823 ] } },
{ "type": "Feature", "properties": { "OBJECTID": 46, "INS_ID": "BAABD ", "NOMELONGO": "SUB ABIL II                                        BA       ", "AGE_ID_PRIN": "986", "AGE_PRIN_NOM": "Renova Energia SA                                              ", "DTPREVISTA": 1648684800000.0, "STR_DTPREVISTA": "31/03/2022", "DTENTRADA": 1666828800000.0, "STR_DTENTRADA": "27/10/2022" }, "geometry": { "type": "Point", "coordinates": [ -42.575483002, -14.353822000546231 ] } },
{ "type": "Feature", "properties": { "OBJECTID": 47, "INS_ID": "BAABL ", "NOMELONGO": "SUB ABIL-I                                         BA       ", "AGE_ID_PRIN": "BIL", "AGE_PRIN_NOM": "CENTRAIS EOLICAS ABIL S.A.                                     ", "DTPREVISTA": 1483056000000.0, "STR_DTPREVISTA": "30/12/2016", "DTENTRADA": 1644451200000.0, "STR_DTENTRADA": "10/02/2022" }, "geometry": { "type": "Point", "coordinates": [ -42.575842000999963, -14.353933006546223 ] } },
{ "type": "Feature", "properties": { "OBJECTID": 48, "INS_ID": "BAABX ", "NOMELONGO": "SUB ABAIXADORA                                     BA       ", "AGE_ID_PRIN": "CHF", "AGE_PRIN_NOM": "CHESF - Companhia Hidro Elétrica do São Francisco              ", "DTPREVISTA": null, "STR_DTPREVISTA": null, "DTENTRADA": 959904000000.0, "STR_DTENTRADA": "02/06/2000" }, "geometry": { "type": "Point", "coordinates": [ -38.194200002, -9.395278006695698 ] } },
{ "type": "Feature", "properties": { "OBJECTID": 49, "INS_ID": "BAALC1", "NOMELONGO": "SUB ALCAÇUZ                                        BA       ", "AGE_ID_PRIN": "LCZ", "AGE_PRIN_NOM": "CENTRAIS EÓLICAS ALCAÇUZ S.A.                                  ", "DTPREVISTA": 1467331200000.0, "STR_DTPREVISTA": "01/07/2016", "DTENTRADA": null, "STR_DTENTRADA": null }, "geometry": { "type": "Point", "coordinates": [ -42.693594000999951, -13.816453002561866 ] } },
{ "type": "Feature", "properties": { "OBJECTID": 50, "INS_ID": "BAALG ", "NOMELONGO": "SUB ALAGOINHAS II                                  BA       ", "AGE_ID_PRIN": "BIS", "AGE_PRIN_NOM": "BRE 2 IMPLANTAÇÃO DE SISTEMAS DE TRANSMISSÃO ELÉTRICA SOCIEDADE", "DTPREVISTA": 1679356800000.0, "STR_DTPREVISTA": "21/03/2023", "DTENTRADA": 1682121600000.0, "STR_DTENTRADA": "22/04/2023" }, "geometry": { "type": "Point", "coordinates": [ -38.400113902999976, -12.04893890061428 ] } },
{ "type": "Feature", "properties": { "OBJECTID": 51, "INS_ID": "BAALV ", "NOMELONGO": "SUB ALVORADA                                       BA       ", "AGE_ID_PRIN": "ALV", "AGE_PRIN_NOM": "Centrais Eólicas Alvorada SA                                   ", "DTPREVISTA": 1398816000000.0, "STR_DTPREVISTA": "30/04/2014", "DTENTRADA": 1404432000000.0, "STR_DTENTRADA": "04/07/2014" }, "geometry": { "type": "Point", "coordinates": [ -42.636807001999955, -14.208409003550452 ] } },
{ "type": "Feature", "properties": { "OBJECTID": 52, "INS_ID": "BAARA ", "NOMELONGO": "SUB ARACAS                                         BA       ", "AGE_ID_PRIN": "ASD", "AGE_PRIN_NOM": "Centrais Eólicas dos Araças SA                                 ", "DTPREVISTA": 1414713600000.0, "STR_DTPREVISTA": "31/10/2014", "DTENTRADA": 1412985600000.0, "STR_DTENTRADA": "11/10/2014" }, "geometry": { "type": "Point", "coordinates": [ -42.609369002, -14.102794006553534 ] } },
{ "type": "Feature", "properties": { "OBJECTID": 53, "INS_ID": "BAASU ", "NOMELONGO": "SUB ASSURUA                                        BA       ", "AGE_ID_PRIN": "CP3", "AGE_PRIN_NOM": "PARQUE EÓLICO CAPOEIRAS III S.A.                               ", "DTPREVISTA": 1514678400000.0, "STR_DTPREVISTA": "31/12/2017", "DTENTRADA": 1523577600000.0, "STR_DTENTRADA": "13/04/2018" }, "geometry": { "type": "Point", "coordinates": [ -42.708300001999987, -11.19560000264012 ] } },
{ "type": "Feature", "properties": { "OBJECTID": 54, "INS_ID": "BABAB ", "NOMELONGO": "SUB BABILONIA                                      BA       ", "AGE_ID_PRIN": "BA3", "AGE_PRIN_NOM": "CENTRAL EOLICA BABILONIA III S.A.                              ", "DTPREVISTA": 1535673600000.0, "STR_DTPREVISTA": "31/08/2018", "DTENTRADA": 1542153600000.0, "STR_DTENTRADA": "14/11/2018" }, "geometry": { "type": "Point", "coordinates": [ -41.228, -10.97000000664698 ] } },
{ "type": "Feature", "properties": { "OBJECTID": 55, "INS_ID": "BABDD ", "NOMELONGO": "SUB BRUMADO II                                     BA       ", "AGE_ID_PRIN": "AFT", "AGE_PRIN_NOM": "AFLUENTE TRANSMISSÃO DE ENERGIA ELÉTRICA S.A.                  ", "DTPREVISTA": 1025395200000.0, "STR_DTPREVISTA": "30/06/2002", "DTENTRADA": 1037059200000.0, "STR_DTENTRADA": "12/11/2002" }, "geometry": { "type": "Point", "coordinates": [ -41.636111102999969, -14.213611103550315 ] } },
{ "type": "Feature", "properties": { "OBJECTID": 56, "INS_ID": "BABJD ", "NOMELONGO": "SUB BOM JESUS DA LAPA II                           BA       ", "AGE_ID_PRIN": "TAE", "AGE_PRIN_NOM": "TRANSMISSORA ALIANÇA DE ENERGIA ELÉTRICA S A                   ", "DTPREVISTA": 1051660800000.0, "STR_DTPREVISTA": "30/04/2003", "DTENTRADA": 1046736000000.0, "STR_DTENTRADA": "04/03/2003" }, "geometry": { "type": "Point", "coordinates": [ -43.342923588999952, -13.310125885576715 ] } },
{ "type": "Feature", "properties": { "OBJECTID": 57, "INS_ID": "BABJS ", "NOMELONGO": "SUB BOM JESUS DA LAPA                              BA       ", "AGE_ID_PRIN": "CHF", "AGE_PRIN_NOM": "CHESF - Companhia Hidro Elétrica do São Francisco              ", "DTPREVISTA": null, "STR_DTPREVISTA": null, "DTENTRADA": 959904000000.0, "STR_DTENTRADA": "02/06/2000" }, "geometry": { "type": "Point", "coordinates": [ -43.346111103999988, -13.308900006576735 ] } },
{ "type": "Feature", "properties": { "OBJECTID": 58, "INS_ID": "BABMC ", "NOMELONGO": "SUB BROTAS DE MACAUBAS                             BA       ", "AGE_ID_PRIN": "CHF", "AGE_PRIN_NOM": "CHESF - Companhia Hidro Elétrica do São Francisco              ", "DTPREVISTA": 1341014400000.0, "STR_DTPREVISTA": "30/06/2012", "DTENTRADA": 1339891200000.0, "STR_DTENTRADA": "17/06/2012" }, "geometry": { "type": "Point", "coordinates": [ -42.342846006, -12.309408999606429 ] } },
{ "type": "Feature", "properties": { "OBJECTID": 59, "INS_ID": "BABOT ", "NOMELONGO": "SUB BOTUQUARA                                      BA       ", "AGE_ID_PRIN": "BTQ", "AGE_PRIN_NOM": "Centrais Elétricas Botuquara Ltda.                             ", "DTPREVISTA": 1483228800000.0, "STR_DTPREVISTA": "01/01/2017", "DTENTRADA": null, "STR_DTENTRADA": null }, "geometry": { "type": "Point", "coordinates": [ -42.892781003999971, -13.555511005569471 ] } },
{ "type": "Feature", "properties": { "OBJECTID": 60, "INS_ID": "BABRA ", "NOMELONGO": "SUB BARREIRAS                                      BA       ", "AGE_ID_PRIN": "CHF", "AGE_PRIN_NOM": "CHESF - Companhia Hidro Elétrica do São Francisco              ", "DTPREVISTA": null, "STR_DTPREVISTA": null, "DTENTRADA": 959904000000.0, "STR_DTENTRADA": "02/06/2000" }, "geometry": { "type": "Point", "coordinates": [ -44.945555604999981, -12.131944402611772 ] } },
{ "type": "Feature", "properties": { "OBJECTID": 61, "INS_ID": "BABRD ", "NOMELONGO": "SUB BARREIRAS II                                   BA       ", "AGE_ID_PRIN": "PTR", "AGE_PRIN_NOM": "PARANAÍBA TRANSMISSORA DE ENERGIA S.A.                         ", "DTPREVISTA": 1489276800000.0, "STR_DTPREVISTA": "12/03/2017", "DTENTRADA": 1495929600000.0, "STR_DTENTRADA": "28/05/2017" }, "geometry": { "type": "Point", "coordinates": [ -44.813714004999952, -12.171311005610606 ] } },
{ "type": "Feature", "properties": { "OBJECTID": 62, "INS_ID": "BABRT ", "NOMELONGO": "SUB BURITIRAMA                                     BA       ", "AGE_ID_PRIN": "EQ2", "AGE_PRIN_NOM": "Equatorial Transmissora 2 SPE SA                               ", "DTPREVISTA": 1579219200000.0, "STR_DTPREVISTA": "17/01/2020", "DTENTRADA": 1579651200000.0, "STR_DTENTRADA": "22/01/2020" }, "geometry": { "type": "Point", "coordinates": [ -44.047467000999973, -10.602586000658254 ] } },
{ "type": "Feature", "properties": { "OBJECTID": 63, "INS_ID": "BABSD ", "NOMELONGO": "SUB BOM JESUS II                                   PI       ", "AGE_ID_PRIN": "PDT", "AGE_PRIN_NOM": "SAO PEDRO TRANSMISSORA DE ENERGIA S/A                          ", "DTPREVISTA": 1502064000000.0, "STR_DTPREVISTA": "07/08/2017", "DTENTRADA": 1519171200000.0, "STR_DTENTRADA": "21/02/2018" }, "geometry": { "type": "Point", "coordinates": [ -44.316867001, -9.100731000704892 ] } },
{ "type": "Feature", "properties": { "OBJECTID": 64, "INS_ID": "BABW1 ", "NOMELONGO": "SUB BW GUIRAPA I                                   BA       ", "AGE_ID_PRIN": "ANG", "AGE_PRIN_NOM": "Central Eólica Angical                                         ", "DTPREVISTA": 1448841600000.0, "STR_DTPREVISTA": "30/11/2015", "DTENTRADA": 1454630400000.0, "STR_DTENTRADA": "05/02/2016" }, "geometry": { "type": "Point", "coordinates": [ -42.608611002999965, -14.348889000546388 ] } },
{ "type": "Feature", "properties": { "OBJECTID": 65, "INS_ID": "BABW2 ", "NOMELONGO": "SUB BW GUIRAPA II                                  BA       ", "AGE_ID_PRIN": "DUA", "AGE_PRIN_NOM": "Central Eólica Tamanduá Mirim SA                               ", "DTPREVISTA": 1448841600000.0, "STR_DTPREVISTA": "30/11/2015", "DTENTRADA": 1455580800000.0, "STR_DTENTRADA": "16/02/2016" }, "geometry": { "type": "Point", "coordinates": [ -42.628333001999977, -14.403056003544783 ] } },
{ "type": "Feature", "properties": { "OBJECTID": 66, "INS_ID": "BACCD ", "NOMELONGO": "SUB CICERO DANTAS                                  BA       ", "AGE_ID_PRIN": "CHF", "AGE_PRIN_NOM": "CHESF - Companhia Hidro Elétrica do São Francisco              ", "DTPREVISTA": null, "STR_DTPREVISTA": null, "DTENTRADA": 959904000000.0, "STR_DTENTRADA": "02/06/2000" }, "geometry": { "type": "Point", "coordinates": [ -38.367222204999962, -10.595277800658472 ] } },
{ "type": "Feature", "properties": { "OBJECTID": 67, "INS_ID": "BACFO ", "NOMELONGO": "SUB CAMPO FORMOSO                                  BA       ", "AGE_ID_PRIN": "CHF", "AGE_PRIN_NOM": "CHESF - Companhia Hidro Elétrica do São Francisco              ", "DTPREVISTA": 1448841600000.0, "STR_DTPREVISTA": "30/11/2015", "DTENTRADA": 1444435200000.0, "STR_DTENTRADA": "10/10/2015" }, "geometry": { "type": "Point", "coordinates": [ -40.613231002999953, -10.584231003658859 ] } },
{ "type": "Feature", "properties": { "OBJECTID": 68, "INS_ID": "BACLA ", "NOMELONGO": "SUB CAMPO LARGO                                    BA       ", "AGE_ID_PRIN": "WWP", "AGE_PRIN_NOM": "CLWP EOLICA PARQUE I S.A.                                      ", "DTPREVISTA": 1543622400000.0, "STR_DTPREVISTA": "01/12/2018", "DTENTRADA": 1530662400000.0, "STR_DTENTRADA": "04/07/2018" }, "geometry": { "type": "Point", "coordinates": [ -41.339722200999972, -10.873333304649949 ] } },
{ "type": "Feature", "properties": { "OBJECTID": 69, "INS_ID": "BACMD ", "NOMELONGO": "SUB CAMACARI II                                    BA       ", "AGE_ID_PRIN": "CHF", "AGE_PRIN_NOM": "CHESF - Companhia Hidro Elétrica do São Francisco              ", "DTPREVISTA": null, "STR_DTPREVISTA": null, "DTENTRADA": 959904000000.0, "STR_DTENTRADA": "02/06/2000" }, "geometry": { "type": "Point", "coordinates": [ -38.348055504, -12.61777780159723 ] } },
{ "type": "Feature", "properties": { "OBJECTID": 70, "INS_ID": "BACMQ ", "NOMELONGO": "SUB CAMACARI IV                                    BA       ", "AGE_ID_PRIN": "CHF", "AGE_PRIN_NOM": "CHESF - Companhia Hidro Elétrica do São Francisco              ", "DTPREVISTA": 1353283200000.0, "STR_DTPREVISTA": "19/11/2012", "DTENTRADA": 1353283200000.0, "STR_DTENTRADA": "19/11/2012" }, "geometry": { "type": "Point", "coordinates": [ -38.342833004999989, -12.611028000597416 ] } },
{ "type": "Feature", "properties": { "OBJECTID": 71, "INS_ID": "BACND ", "NOMELONGO": "SUB CASA NOVA II                                   BA       ", "AGE_ID_PRIN": "CHF", "AGE_PRIN_NOM": "CHESF - Companhia Hidro Elétrica do São Francisco              ", "DTPREVISTA": 1506729600000.0, "STR_DTPREVISTA": "30/09/2017", "DTENTRADA": 1512777600000.0, "STR_DTENTRADA": "09/12/2017" }, "geometry": { "type": "Point", "coordinates": [ -41.028000004999967, -9.286400005699045 ] } },
{ "type": "Feature", "properties": { "OBJECTID": 72, "INS_ID": "BACPBR", "NOMELONGO": "SUB PEDRA BRANCA                                   BA       ", "AGE_ID_PRIN": "DRA", "AGE_PRIN_NOM": "PEDRA BRANCA SA                                                ", "DTPREVISTA": 1364688000000.0, "STR_DTPREVISTA": "31/03/2013", "DTENTRADA": 1359849600000.0, "STR_DTENTRADA": "03/02/2013" }, "geometry": { "type": "Point", "coordinates": [ -41.090000004, -9.856667004681295 ] } },
{ "type": "Feature", "properties": { "OBJECTID": 73, "INS_ID": "BACRI ", "NOMELONGO": "SUB CRISTAL                                        BA       ", "AGE_ID_PRIN": "IST", "AGE_PRIN_NOM": "Enel Green Power Cristal Eólica SA                             ", "DTPREVISTA": 1485820800000.0, "STR_DTPREVISTA": "31/01/2017", "DTENTRADA": 1510272000000.0, "STR_DTENTRADA": "10/11/2017" }, "geometry": { "type": "Point", "coordinates": [ -41.378256000999954, -11.735466003623735 ] } },
{ "type": "Feature", "properties": { "OBJECTID": 74, "INS_ID": "BACTA ", "NOMELONGO": "SUB CAETITE A                                      BA       ", "AGE_ID_PRIN": "TTA", "AGE_PRIN_NOM": "EOLICA CAETITE A S.A.                                          ", "DTPREVISTA": 1446249600000.0, "STR_DTPREVISTA": "31/10/2015", "DTENTRADA": 1441756800000.0, "STR_DTENTRADA": "09/09/2015" }, "geometry": { "type": "Point", "coordinates": [ -42.478206001, -14.138050004552474 ] } },
{ "type": "Feature", "properties": { "OBJECTID": 75, "INS_ID": "BACTE ", "NOMELONGO": "SUB CAETITE                                        BA       ", "AGE_ID_PRIN": "ETI", "AGE_PRIN_NOM": "Centrais Eólicas Caetité Ltda                                  ", "DTPREVISTA": 1448841600000.0, "STR_DTPREVISTA": "30/11/2015", "DTENTRADA": 1451606400000.0, "STR_DTENTRADA": "01/01/2016" }, "geometry": { "type": "Point", "coordinates": [ -42.582935004999968, -14.468988001542938 ] } },
{ "type": "Feature", "properties": { "OBJECTID": 76, "INS_ID": "BACTG ", "NOMELONGO": "SUB COTEGIPE                                       BA       ", "AGE_ID_PRIN": "CHF", "AGE_PRIN_NOM": "CHESF - Companhia Hidro Elétrica do São Francisco              ", "DTPREVISTA": null, "STR_DTPREVISTA": null, "DTENTRADA": 959904000000.0, "STR_DTENTRADA": "02/06/2000" }, "geometry": { "type": "Point", "coordinates": [ -38.427777803999959, -12.791388906592081 ] } },
{ "type": "Feature", "properties": { "OBJECTID": 77, "INS_ID": "BACTT ", "NOMELONGO": "SUB CAETITE 123                                    BA       ", "AGE_ID_PRIN": "968", "AGE_PRIN_NOM": "Caetité 2 Energia Renovável S.A.                               ", "DTPREVISTA": 1414713600000.0, "STR_DTPREVISTA": "31/10/2014", "DTENTRADA": 1412294400000.0, "STR_DTENTRADA": "03/10/2014" }, "geometry": { "type": "Point", "coordinates": [ -42.49335600399997, -14.186292000551076 ] } },
{ "type": "Feature", "properties": { "OBJECTID": 78, "INS_ID": "BACTU ", "NOMELONGO": "SUB CATU                                           BA       ", "AGE_ID_PRIN": "CHF", "AGE_PRIN_NOM": "CHESF - Companhia Hidro Elétrica do São Francisco              ", "DTPREVISTA": null, "STR_DTPREVISTA": null, "DTENTRADA": 959904000000.0, "STR_DTENTRADA": "02/06/2000" }, "geometry": { "type": "Point", "coordinates": [ -38.366944402, -12.391388900603985 ] } },
{ "type": "Feature", "properties": { "OBJECTID": 79, "INS_ID": "BACVN ", "NOMELONGO": "SUB CURVA DOS VENTOS                               BA       ", "AGE_ID_PRIN": "GRR", "AGE_PRIN_NOM": "ENEL GREEN POWER EMILIANA EÓLICA SA                            ", "DTPREVISTA": 1406764800000.0, "STR_DTPREVISTA": "31/07/2014", "DTENTRADA": 1411689600000.0, "STR_DTENTRADA": "26/09/2014" }, "geometry": { "type": "Point", "coordinates": [ -42.616201005999983, -13.916364006558927 ] } },
{ "type": "Feature", "properties": { "OBJECTID": 80, "INS_ID": "BADFN ", "NOMELONGO": "SUB DELFINA                                        BA       ", "AGE_ID_PRIN": "DLF", "AGE_PRIN_NOM": "ENEL GREEN POWER DELFINA A EÓLICA S.A.                         ", "DTPREVISTA": 1506816000000.0, "STR_DTPREVISTA": "01/10/2017", "DTENTRADA": 1509408000000.0, "STR_DTENTRADA": "31/10/2017" }, "geometry": { "type": "Point", "coordinates": [ -40.929900004999979, -10.007217004676637 ] } },
{ "type": "Feature", "properties": { "OBJECTID": 81, "INS_ID": "BAENP ", "NOMELONGO": "SUB EUNAPOLIS                                      BA       ", "AGE_ID_PRIN": "CHF", "AGE_PRIN_NOM": "CHESF - Companhia Hidro Elétrica do São Francisco              ", "DTPREVISTA": null, "STR_DTPREVISTA": null, "DTENTRADA": 959904000000.0, "STR_DTENTRADA": "02/06/2000" }, "geometry": { "type": "Point", "coordinates": [ -39.580277800999973, -16.37722220248893 ] } },
{ "type": "Feature", "properties": { "OBJECTID": 82, "INS_ID": "BAFDS ", "NOMELONGO": "SUB FOLHA DE SERRA                                 BA       ", "AGE_ID_PRIN": "BLV", "AGE_PRIN_NOM": "CENTRAIS EOLICAS FOLHA DA SERRA S.A                            ", "DTPREVISTA": 1483056000000.0, "STR_DTPREVISTA": "30/12/2016", "DTENTRADA": 1643760000000.0, "STR_DTENTRADA": "02/02/2022" }, "geometry": { "type": "Point", "coordinates": [ -42.561641, -14.542464800540806 ] } },
{ "type": "Feature", "properties": { "OBJECTID": 83, "INS_ID": "BAFNL ", "NOMELONGO": "SUB FUNIL                                          BA       ", "AGE_ID_PRIN": "CHF", "AGE_PRIN_NOM": "CHESF - Companhia Hidro Elétrica do São Francisco              ", "DTPREVISTA": null, "STR_DTPREVISTA": null, "DTENTRADA": 949795200000.0, "STR_DTENTRADA": "06/02/2000" }, "geometry": { "type": "Point", "coordinates": [ -39.462778002, -14.232222005549751 ] } },
{ "type": "Feature", "properties": { "OBJECTID": 84, "INS_ID": "BAFRD ", "NOMELONGO": "SUB FORD                                           BA       ", "AGE_ID_PRIN": "AFT", "AGE_PRIN_NOM": "AFLUENTE TRANSMISSÃO DE ENERGIA ELÉTRICA S.A.                  ", "DTPREVISTA": null, "STR_DTPREVISTA": null, "DTENTRADA": 662601600000.0, "STR_DTENTRADA": "31/12/1990" }, "geometry": { "type": "Point", "coordinates": [ -38.277457005999963, -12.669314004595709 ] } },
{ "type": "Feature", "properties": { "OBJECTID": 85, "INS_ID": "BAFS3 ", "NOMELONGO": "SUB FEIRA DE SANTANA III                           BA       ", "AGE_ID_PRIN": "YON", "AGE_PRIN_NOM": "FS TRANSMISSORA DE ENERGIA ELÉTRICA S.A.                       ", "DTPREVISTA": 1647820800000.0, "STR_DTPREVISTA": "21/03/2022", "DTENTRADA": 1662076800000.0, "STR_DTENTRADA": "02/09/2022" }, "geometry": { "type": "Point", "coordinates": [ -38.949611104999974, -12.134166702611674 ] } },
{ "type": "Feature", "properties": { "OBJECTID": 86, "INS_ID": "BAGBL ", "NOMELONGO": "SUB GLOBAL                                         BA       ", "AGE_ID_PRIN": "C10", "AGE_PRIN_NOM": "COMPANHIA ENERGETICA CANDEIAS                                  ", "DTPREVISTA": 1277856000000.0, "STR_DTPREVISTA": "30/06/2010", "DTENTRADA": 1273190400000.0, "STR_DTENTRADA": "07/05/2010" }, "geometry": { "type": "Point", "coordinates": [ -38.482917002999955, -12.727500006593987 ] } },
{ "type": "Feature", "properties": { "OBJECTID": 87, "INS_ID": "BAGOI ", "NOMELONGO": "SUB GENTIO DO OURO I                               BA       ", "AGE_ID_PRIN": "SSR", "AGE_PRIN_NOM": "ASSURUA 1 II ENERGIA S.A.                                      ", "DTPREVISTA": 1456617600000.0, "STR_DTPREVISTA": "28/02/2016", "DTENTRADA": 1459814400000.0, "STR_DTENTRADA": "05/04/2016" }, "geometry": { "type": "Point", "coordinates": [ -42.66154400299996, -11.117352999642502 ] } },
{ "type": "Feature", "properties": { "OBJECTID": 88, "INS_ID": "BAGOR ", "NOMELONGO": "SUB GENTIO DO OURO II                              BA       ", "AGE_ID_PRIN": "JMM", "AGE_PRIN_NOM": "TRANSMISSORA JOSE MARIA DE MACEDO DE ELETRICIDADE S.A.         ", "DTPREVISTA": 1522108800000.0, "STR_DTPREVISTA": "27/03/2018", "DTENTRADA": 1525392000000.0, "STR_DTENTRADA": "04/05/2018" }, "geometry": { "type": "Point", "coordinates": [ -42.64555600299996, -11.317778006636374 ] } },
{ "type": "Feature", "properties": { "OBJECTID": 89, "INS_ID": "BAGRP ", "NOMELONGO": "SUB GUIRAPA                                        BA       ", "AGE_ID_PRIN": "GPA", "AGE_PRIN_NOM": "Centrais Eólicas Guirapá SA                                    ", "DTPREVISTA": 1398816000000.0, "STR_DTPREVISTA": "30/04/2014", "DTENTRADA": 1404432000000.0, "STR_DTENTRADA": "04/07/2014" }, "geometry": { "type": "Point", "coordinates": [ -42.598414004, -14.172142006551514 ] } },
{ "type": "Feature", "properties": { "OBJECTID": 90, "INS_ID": "BAGVM ", "NOMELONGO": "SUB GOVERNADOR MANGABEIRA                          BA       ", "AGE_ID_PRIN": "CHF", "AGE_PRIN_NOM": "CHESF - Companhia Hidro Elétrica do São Francisco              ", "DTPREVISTA": null, "STR_DTPREVISTA": null, "DTENTRADA": 959904000000.0, "STR_DTENTRADA": "02/06/2000" }, "geometry": { "type": "Point", "coordinates": [ -39.03333330199996, -12.606388904597551 ] } },
{ "type": "Feature", "properties": { "OBJECTID": 91, "INS_ID": "BAICA ", "NOMELONGO": "SUB IBICOARA                                       BA       ", "AGE_ID_PRIN": "TAE", "AGE_PRIN_NOM": "TRANSMISSORA ALIANÇA DE ENERGIA ELÉTRICA S A                   ", "DTPREVISTA": 1049068800000.0, "STR_DTPREVISTA": "31/03/2003", "DTENTRADA": 1046736000000.0, "STR_DTENTRADA": "04/03/2003" }, "geometry": { "type": "Point", "coordinates": [ -41.375555604999988, -13.442500002572793 ] } },
{ "type": "Feature", "properties": { "OBJECTID": 92, "INS_ID": "BAIGB ", "NOMELONGO": "SUB ITAGIBA                                        BA       ", "AGE_ID_PRIN": "AFT", "AGE_PRIN_NOM": "AFLUENTE TRANSMISSÃO DE ENERGIA ELÉTRICA S.A.                  ", "DTPREVISTA": 1256947200000.0, "STR_DTPREVISTA": "31/10/2009", "DTENTRADA": 1252800000000.0, "STR_DTENTRADA": "13/09/2009" }, "geometry": { "type": "Point", "coordinates": [ -39.716589003999957, -14.234494000549681 ] } },
{ "type": "Feature", "properties": { "OBJECTID": 93, "INS_ID": "BAIGD ", "NOMELONGO": "SUB IGAPORA II                                     BA       ", "AGE_ID_PRIN": "CHF", "AGE_PRIN_NOM": "CHESF - Companhia Hidro Elétrica do São Francisco              ", "DTPREVISTA": 1401494400000.0, "STR_DTPREVISTA": "31/05/2014", "DTENTRADA": 1401408000000.0, "STR_DTENTRADA": "30/05/2014" }, "geometry": { "type": "Point", "coordinates": [ -42.62944400300001, -14.027222000555717 ] } },
{ "type": "Feature", "properties": { "OBJECTID": 94, "INS_ID": "BAIGT ", "NOMELONGO": "SUB IGAPORA III                                    BA       ", "AGE_ID_PRIN": "CHF", "AGE_PRIN_NOM": "CHESF - Companhia Hidro Elétrica do São Francisco              ", "DTPREVISTA": 1445731200000.0, "STR_DTPREVISTA": "25/10/2015", "DTENTRADA": 1447545600000.0, "STR_DTENTRADA": "15/11/2015" }, "geometry": { "type": "Point", "coordinates": [ -42.61969400199996, -14.01518900655609 ] } },
{ "type": "Feature", "properties": { "OBJECTID": 95, "INS_ID": "BAIRE ", "NOMELONGO": "SUB IRECE                                          BA       ", "AGE_ID_PRIN": "CHF", "AGE_PRIN_NOM": "CHESF - Companhia Hidro Elétrica do São Francisco              ", "DTPREVISTA": null, "STR_DTPREVISTA": null, "DTENTRADA": 959904000000.0, "STR_DTENTRADA": "02/06/2000" }, "geometry": { "type": "Point", "coordinates": [ -41.807688004999982, -11.30951500663663 ] } },
{ "type": "Feature", "properties": { "OBJECTID": 96, "INS_ID": "BAITB3", "NOMELONGO": "SUB ITABUNA III                                    BA       ", "AGE_ID_PRIN": "AE3", "AGE_PRIN_NOM": "ARTEON Z3 ENERGIA S.A.                                         ", "DTPREVISTA": 1614211200000.0, "STR_DTPREVISTA": "25/02/2021", "DTENTRADA": 1637884800000.0, "STR_DTENTRADA": "26/11/2021" }, "geometry": { "type": "Point", "coordinates": [ -39.268708303999972, -14.829030603532553 ] } },
{ "type": "Feature", "properties": { "OBJECTID": 97, "INS_ID": "BAJCR ", "NOMELONGO": "SUB JACARACANGA                                    BA       ", "AGE_ID_PRIN": "CHF", "AGE_PRIN_NOM": "CHESF - Companhia Hidro Elétrica do São Francisco              ", "DTPREVISTA": null, "STR_DTPREVISTA": null, "DTENTRADA": 959904000000.0, "STR_DTENTRADA": "02/06/2000" }, "geometry": { "type": "Point", "coordinates": [ -38.484444401999951, -12.693055599594988 ] } },
{ "type": "Feature", "properties": { "OBJECTID": 98, "INS_ID": "BAJGR ", "NOMELONGO": "SUB JAGUARARI-SE                                   BA       ", "AGE_ID_PRIN": "CHF", "AGE_PRIN_NOM": "CHESF - Companhia Hidro Elétrica do São Francisco              ", "DTPREVISTA": null, "STR_DTPREVISTA": null, "DTENTRADA": 959904000000.0, "STR_DTENTRADA": "02/06/2000" }, "geometry": { "type": "Point", "coordinates": [ -39.966667003999987, -9.85000000168154 ] } },
{ "type": "Feature", "properties": { "OBJECTID": 99, "INS_ID": "BAJZD ", "NOMELONGO": "SUB JUAZEIRO II                                    BA       ", "AGE_ID_PRIN": "CHF", "AGE_PRIN_NOM": "CHESF - Companhia Hidro Elétrica do São Francisco              ", "DTPREVISTA": null, "STR_DTPREVISTA": null, "DTENTRADA": 959904000000.0, "STR_DTENTRADA": "02/06/2000" }, "geometry": { "type": "Point", "coordinates": [ -40.477222203999986, -9.479972205693004 ] } },
{ "type": "Feature", "properties": { "OBJECTID": 100, "INS_ID": "BAJZS ", "NOMELONGO": "SUB JUAZEIRO SOLAR                                 BA       ", "AGE_ID_PRIN": "JSI", "AGE_PRIN_NOM": "Central Fotovoltaica Juazeiro Solar I SPE Ltda                 ", "DTPREVISTA": 1543536000000.0, "STR_DTPREVISTA": "30/11/2018", "DTENTRADA": 1544572800000.0, "STR_DTENTRADA": "12/12/2018" }, "geometry": { "type": "Point", "coordinates": [ -40.489, -9.533300004691389 ] } },
{ "type": "Feature", "properties": { "OBJECTID": 101, "INS_ID": "BAJZT ", "NOMELONGO": "SUB JUAZEIRO DA BAHIA III                          BA       ", "AGE_ID_PRIN": "ODO", "AGE_PRIN_NOM": "ARGO V TRANSMISSAO DE ENERGIA S.A                              ", "DTPREVISTA": 1482278400000.0, "STR_DTPREVISTA": "21/12/2016", "DTENTRADA": 1472947200000.0, "STR_DTENTRADA": "04/09/2016" }, "geometry": { "type": "Point", "coordinates": [ -40.481221004999959, -9.471232004693313 ] } },
{ "type": "Feature", "properties": { "OBJECTID": 102, "INS_ID": "BALAL ", "NOMELONGO": "SUB LICINIO DE ALMEIDA                             BA       ", "AGE_ID_PRIN": "ODA", "AGE_PRIN_NOM": "Centrais Eólicas Licínio de Almeida SA                         ", "DTPREVISTA": 1364601600000.0, "STR_DTPREVISTA": "30/03/2013", "DTENTRADA": 1404432000000.0, "STR_DTENTRADA": "04/07/2014" }, "geometry": { "type": "Point", "coordinates": [ -42.640231005999965, -14.183517999551187 ] } },
{ "type": "Feature", "properties": { "OBJECTID": 103, "INS_ID": "BAMOR ", "NOMELONGO": "SUB MORRAO                                         BA       ", "AGE_ID_PRIN": "MOO", "AGE_PRIN_NOM": "Centrais Elétricas Morrão SA                                   ", "DTPREVISTA": 1414713600000.0, "STR_DTPREVISTA": "31/10/2014", "DTENTRADA": 1412985600000.0, "STR_DTENTRADA": "11/10/2014" }, "geometry": { "type": "Point", "coordinates": [ -42.681442, -14.128731004552744 ] } },
{ "type": "Feature", "properties": { "OBJECTID": 104, "INS_ID": "BAMPD ", "NOMELONGO": "SUB MORRO DO CHAPEU II                             BA       ", "AGE_ID_PRIN": "CHF", "AGE_PRIN_NOM": "CHESF - Companhia Hidro Elétrica do São Francisco              ", "DTPREVISTA": 1504137600000.0, "STR_DTPREVISTA": "31/08/2017", "DTENTRADA": 1501545600000.0, "STR_DTENTRADA": "01/08/2017" }, "geometry": { "type": "Point", "coordinates": [ -41.350884004999962, -11.723876006624097 ] } },
{ "type": "Feature", "properties": { "OBJECTID": 105, "INS_ID": "BAMTT ", "NOMELONGO": "SUB MATATU                                         BA       ", "AGE_ID_PRIN": "CHF", "AGE_PRIN_NOM": "CHESF - Companhia Hidro Elétrica do São Francisco              ", "DTPREVISTA": null, "STR_DTPREVISTA": null, "DTENTRADA": 959904000000.0, "STR_DTENTRADA": "02/06/2000" }, "geometry": { "type": "Point", "coordinates": [ -38.484444401999951, -12.975555606586608 ] } },
{ "type": "Feature", "properties": { "OBJECTID": 106, "INS_ID": "BANRD ", "NOMELONGO": "SUB NARANDIBA                                      BA       ", "AGE_ID_PRIN": "NRD", "AGE_PRIN_NOM": "SE NARANDIBA S.A.                                              ", "DTPREVISTA": 1309392000000.0, "STR_DTPREVISTA": "30/06/2011", "DTENTRADA": 1307318400000.0, "STR_DTENTRADA": "06/06/2011" }, "geometry": { "type": "Point", "coordinates": [ -38.445330001, -12.953720405587266 ] } },
{ "type": "Feature", "properties": { "OBJECTID": 107, "INS_ID": "BANSC ", "NOMELONGO": "SUB NOSSA SENHORA DA CONCEICAO                     BA       ", "AGE_ID_PRIN": "NSC", "AGE_PRIN_NOM": "Centrais Eólicas Nossa Senhora da Conceição SA                 ", "DTPREVISTA": 1396137600000.0, "STR_DTPREVISTA": "30/03/2014", "DTENTRADA": 1404432000000.0, "STR_DTENTRADA": "04/07/2014" }, "geometry": { "type": "Point", "coordinates": [ -42.665913000999971, -13.886154003559829 ] } },
{ "type": "Feature", "properties": { "OBJECTID": 108, "INS_ID": "BAOLD ", "NOMELONGO": "SUB OLINDINA                                       BA       ", "AGE_ID_PRIN": "CHF", "AGE_PRIN_NOM": "CHESF - Companhia Hidro Elétrica do São Francisco              ", "DTPREVISTA": null, "STR_DTPREVISTA": null, "DTENTRADA": 959904000000.0, "STR_DTENTRADA": "02/06/2000" }, "geometry": { "type": "Point", "coordinates": [ -38.386400006999963, -11.316100001636451 ] } },
{ "type": "Feature", "properties": { "OBJECTID": 109, "INS_ID": "BAOUR ", "NOMELONGO": "SUB OUROLANDIA II                                  BA       ", "AGE_ID_PRIN": "JMM", "AGE_PRIN_NOM": "TRANSMISSORA JOSE MARIA DE MACEDO DE ELETRICIDADE S.A.         ", "DTPREVISTA": 1522108800000.0, "STR_DTPREVISTA": "27/03/2018", "DTENTRADA": 1525392000000.0, "STR_DTENTRADA": "04/05/2018" }, "geometry": { "type": "Point", "coordinates": [ -41.254033006999975, -10.798733003652258 ] } },
{ "type": "Feature", "properties": { "OBJECTID": 110, "INS_ID": "BAPAF ", "NOMELONGO": "SUB PAULO AFONSO III                               BA       ", "AGE_ID_PRIN": "CHF", "AGE_PRIN_NOM": "CHESF - Companhia Hidro Elétrica do São Francisco              ", "DTPREVISTA": null, "STR_DTPREVISTA": null, "DTENTRADA": 959904000000.0, "STR_DTENTRADA": "02/06/2000" }, "geometry": { "type": "Point", "coordinates": [ -38.197800003, -9.40220000569547 ] } },
{ "type": "Feature", "properties": { "OBJECTID": 111, "INS_ID": "BAPAQ ", "NOMELONGO": "SUB SE PAULO  AFONSO IV                            BA       ", "AGE_ID_PRIN": "CHF", "AGE_PRIN_NOM": "CHESF - Companhia Hidro Elétrica do São Francisco              ", "DTPREVISTA": null, "STR_DTPREVISTA": null, "DTENTRADA": 959904000000.0, "STR_DTENTRADA": "02/06/2000" }, "geometry": { "type": "Point", "coordinates": [ -38.197777799999983, -9.412500001695161 ] } },
{ "type": "Feature", "properties": { "OBJECTID": 112, "INS_ID": "BAPEL ", "NOMELONGO": "SUB PELOURINHO                                     BA       ", "AGE_ID_PRIN": "NOO", "AGE_PRIN_NOM": "Centrais Eólicas Pelourinho Ltda                               ", "DTPREVISTA": 1448841600000.0, "STR_DTPREVISTA": "30/11/2015", "DTENTRADA": 1451606400000.0, "STR_DTENTRADA": "01/01/2016" }, "geometry": { "type": "Point", "coordinates": [ -42.588387004999959, -14.509293004541734 ] } },
{ "type": "Feature", "properties": { "OBJECTID": 113, "INS_ID": "BAPLO ", "NOMELONGO": "SUB POLO                                           BA       ", "AGE_ID_PRIN": "CHF", "AGE_PRIN_NOM": "CHESF - Companhia Hidro Elétrica do São Francisco              ", "DTPREVISTA": 1248998400000.0, "STR_DTPREVISTA": "31/07/2009", "DTENTRADA": 1234051200000.0, "STR_DTENTRADA": "08/02/2009" }, "geometry": { "type": "Point", "coordinates": [ -38.273906, -12.662964001595865 ] } },
{ "type": "Feature", "properties": { "OBJECTID": 114, "INS_ID": "BAPND ", "NOMELONGO": "SUB PINDAI II                                      BA       ", "AGE_ID_PRIN": "CHF", "AGE_PRIN_NOM": "CHESF - Companhia Hidro Elétrica do São Francisco              ", "DTPREVISTA": 1445731200000.0, "STR_DTPREVISTA": "25/10/2015", "DTENTRADA": 1447545600000.0, "STR_DTENTRADA": "15/11/2015" }, "geometry": { "type": "Point", "coordinates": [ -42.607767000999957, -14.415433004544434 ] } },
{ "type": "Feature", "properties": { "OBJECTID": 115, "INS_ID": "BAPNT ", "NOMELONGO": "SUB PLANALTINA                                     BA       ", "AGE_ID_PRIN": "PTA", "AGE_PRIN_NOM": "Centrais Eólicas Planaltina SA                                 ", "DTPREVISTA": 1396137600000.0, "STR_DTPREVISTA": "30/03/2014", "DTENTRADA": 1404432000000.0, "STR_DTENTRADA": "04/07/2014" }, "geometry": { "type": "Point", "coordinates": [ -42.639006003999953, -13.997313000556556 ] } },
{ "type": "Feature", "properties": { "OBJECTID": 116, "INS_ID": "BAPOD ", "NOMELONGO": "SUB POCOES II                                      BA       ", "AGE_ID_PRIN": "CHF", "AGE_PRIN_NOM": "CHESF - Companhia Hidro Elétrica do São Francisco              ", "DTPREVISTA": 1572307200000.0, "STR_DTPREVISTA": "29/10/2019", "DTENTRADA": 1572134400000.0, "STR_DTENTRADA": "27/10/2019" }, "geometry": { "type": "Point", "coordinates": [ -40.375103003999982, -14.517532005541492 ] } },
{ "type": "Feature", "properties": { "OBJECTID": 117, "INS_ID": "BAPOT ", "NOMELONGO": "SUB POCOES III                                     BA       ", "AGE_ID_PRIN": "IBT", "AGE_PRIN_NOM": "EDTE - EMPRESA DIAMANTINA DE TRANSMISSÃO DE ENERGIA S.A.       ", "DTPREVISTA": 1577404800000.0, "STR_DTPREVISTA": "27/12/2019", "DTENTRADA": 1576972800000.0, "STR_DTENTRADA": "22/12/2019" }, "geometry": { "type": "Point", "coordinates": [ -40.398938902, -14.518956504541439 ] } },
{ "type": "Feature", "properties": { "OBJECTID": 118, "INS_ID": "BAPRJ ", "NOMELONGO": "SUB PIRAJA                                         BA       ", "AGE_ID_PRIN": "MEZ", "AGE_PRIN_NOM": "MEZ 1 ENERGIA S.A.                                             ", "DTPREVISTA": 1724803200000.0, "STR_DTPREVISTA": "28/08/2024", "DTENTRADA": 1737244800000.0, "STR_DTENTRADA": "19/01/2025" }, "geometry": { "type": "Point", "coordinates": [ -38.455922, -12.92214400358816 ] } },
{ "type": "Feature", "properties": { "OBJECTID": 119, "INS_ID": "BAPTU ", "NOMELONGO": "SUB PITUACU                                        BA       ", "AGE_ID_PRIN": "CHF", "AGE_PRIN_NOM": "CHESF - Companhia Hidro Elétrica do São Francisco              ", "DTPREVISTA": null, "STR_DTPREVISTA": null, "DTENTRADA": 959904000000.0, "STR_DTENTRADA": "02/06/2000" }, "geometry": { "type": "Point", "coordinates": [ -38.420000002, -12.939166702587649 ] } },
{ "type": "Feature", "properties": { "OBJECTID": 120, "INS_ID": "BARDE ", "NOMELONGO": "SUB RIO DAS EGUAS                                  BA       ", "AGE_ID_PRIN": "TAE", "AGE_PRIN_NOM": "TRANSMISSORA ALIANÇA DE ENERGIA ELÉTRICA S A                   ", "DTPREVISTA": 1049068800000.0, "STR_DTPREVISTA": "31/03/2003", "DTENTRADA": 1046736000000.0, "STR_DTENTRADA": "04/03/2003" }, "geometry": { "type": "Point", "coordinates": [ -46.177500001999988, -13.850833304560853 ] } },
{ "type": "Feature", "properties": { "OBJECTID": 121, "INS_ID": "BARFM ", "NOMELONGO": "SUB RIO FORMOSO II                                 BA       ", "AGE_ID_PRIN": "KT6", "AGE_PRIN_NOM": "NEOENERGIA RIO FORMOSO TRANSMISSAO E ENERGIA S.A.              ", "DTPREVISTA": 1663200000000.0, "STR_DTPREVISTA": "15/09/2022", "DTENTRADA": 1674950400000.0, "STR_DTENTRADA": "29/01/2023" }, "geometry": { "type": "Point", "coordinates": [ -45.660417005, -14.536722004540987 ] } },
{ "type": "Feature", "properties": { "OBJECTID": 122, "INS_ID": "BARGD ", "NOMELONGO": "SUB RIO GRANDE II                                  BA       ", "AGE_ID_PRIN": "PDT", "AGE_PRIN_NOM": "SAO PEDRO TRANSMISSORA DE ENERGIA S/A                          ", "DTPREVISTA": 1489276800000.0, "STR_DTPREVISTA": "12/03/2017", "DTENTRADA": 1495929600000.0, "STR_DTENTRADA": "28/05/2017" }, "geometry": { "type": "Point", "coordinates": [ -45.489458001999985, -12.845135003590471 ] } },
{ "type": "Feature", "properties": { "OBJECTID": 123, "INS_ID": "BASAZ ", "NOMELONGO": "SUB SERRA AZUL                                     BA       ", "AGE_ID_PRIN": "ASC", "AGE_PRIN_NOM": "Enel Green Power Damascena Eólica SA                           ", "DTPREVISTA": 1475193600000.0, "STR_DTPREVISTA": "30/09/2016", "DTENTRADA": 1447459200000.0, "STR_DTENTRADA": "14/11/2015" }, "geometry": { "type": "Point", "coordinates": [ -41.458394006, -11.866389006619743 ] } },
{ "type": "Feature", "properties": { "OBJECTID": 124, "INS_ID": "BASDB ", "NOMELONGO": "SUB SERRA DA BABILONIA                             BA       ", "AGE_ID_PRIN": "SDB", "AGE_PRIN_NOM": "EÓLICA SERRA DA BABILÔNIA II S.A.                              ", "DTPREVISTA": 1538265600000.0, "STR_DTPREVISTA": "30/09/2018", "DTENTRADA": 1544572800000.0, "STR_DTENTRADA": "12/12/2018" }, "geometry": { "type": "Point", "coordinates": [ -41.328733302999979, -11.104661106642885 ] } },
{ "type": "Feature", "properties": { "OBJECTID": 125, "INS_ID": "BASNB ", "NOMELONGO": "SUB SENHOR DO BONFIM II                            BA       ", "AGE_ID_PRIN": "CHF", "AGE_PRIN_NOM": "CHESF - Companhia Hidro Elétrica do São Francisco              ", "DTPREVISTA": null, "STR_DTPREVISTA": null, "DTENTRADA": 959904000000.0, "STR_DTENTRADA": "02/06/2000" }, "geometry": { "type": "Point", "coordinates": [ -40.186944402999977, -10.454444400662844 ] } },
{ "type": "Feature", "properties": { "OBJECTID": 126, "INS_ID": "BASPD ", "NOMELONGO": "SUB SAO PEDRO                                      BA       ", "AGE_ID_PRIN": "PDO", "AGE_PRIN_NOM": "Central Fotovoltaica São Pedro II Ltda                         ", "DTPREVISTA": 1532995200000.0, "STR_DTPREVISTA": "31/07/2018", "DTENTRADA": 1541635200000.0, "STR_DTENTRADA": "08/11/2018" }, "geometry": { "type": "Point", "coordinates": [ -43.272800005999954, -13.31640000657651 ] } },
{ "type": "Feature", "properties": { "OBJECTID": 127, "INS_ID": "BASPU ", "NOMELONGO": "SUB SAPEACU                                        BA       ", "AGE_ID_PRIN": "TAE", "AGE_PRIN_NOM": "TRANSMISSORA ALIANÇA DE ENERGIA ELÉTRICA S A                   ", "DTPREVISTA": 1051660800000.0, "STR_DTPREVISTA": "30/04/2003", "DTENTRADA": 1046736000000.0, "STR_DTENTRADA": "04/03/2003" }, "geometry": { "type": "Point", "coordinates": [ -39.183333299999966, -12.719444401594188 ] } },
{ "type": "Feature", "properties": { "OBJECTID": 128, "INS_ID": "BASTJ ", "NOMELONGO": "SUB SANTO ANTONIO DE JESUS                         BA       ", "AGE_ID_PRIN": "CHF", "AGE_PRIN_NOM": "CHESF - Companhia Hidro Elétrica do São Francisco              ", "DTPREVISTA": null, "STR_DTPREVISTA": null, "DTENTRADA": 959904000000.0, "STR_DTENTRADA": "02/06/2000" }, "geometry": { "type": "Point", "coordinates": [ -39.266388900999971, -12.949722200587365 ] } },
{ "type": "Feature", "properties": { "OBJECTID": 129, "INS_ID": "BATBD ", "NOMELONGO": "SUB TAMBORIL II                                    BA       ", "AGE_ID_PRIN": "ACC", "AGE_PRIN_NOM": "CENTRAIS EOLICAS ACACIA S.A.                                   ", "DTPREVISTA": 1506729600000.0, "STR_DTPREVISTA": "30/09/2017", "DTENTRADA": 1652832000000.0, "STR_DTENTRADA": "18/05/2022" }, "geometry": { "type": "Point", "coordinates": [ -42.692908703999983, -13.888741999559748 ] } },
{ "type": "Feature", "properties": { "OBJECTID": 130, "INS_ID": "BATBR ", "NOMELONGO": "SUB TAMBORIL I                                     BA       ", "AGE_ID_PRIN": "RRV", "AGE_PRIN_NOM": "Centrais Eólicas Amescla S.A.                                  ", "DTPREVISTA": 1467331200000.0, "STR_DTPREVISTA": "01/07/2016", "DTENTRADA": 1666396800000.0, "STR_DTENTRADA": "22/10/2022" }, "geometry": { "type": "Point", "coordinates": [ -42.693060405999979, -13.888758599559726 ] } },
{ "type": "Feature", "properties": { "OBJECTID": 131, "INS_ID": "BATBV ", "NOMELONGO": "SUB TABOCAS DO BREJO VELHO                         BA       ", "AGE_ID_PRIN": "CHF", "AGE_PRIN_NOM": "CHESF - Companhia Hidro Elétrica do São Francisco              ", "DTPREVISTA": 1490918400000.0, "STR_DTPREVISTA": "31/03/2017", "DTENTRADA": 1496534400000.0, "STR_DTENTRADA": "04/06/2017" }, "geometry": { "type": "Point", "coordinates": [ -44.061510205, -12.810368001591479 ] } },
{ "type": "Feature", "properties": { "OBJECTID": 132, "INS_ID": "BATMB ", "NOMELONGO": "SUB TOMBA                                          BA       ", "AGE_ID_PRIN": "AFT", "AGE_PRIN_NOM": "AFLUENTE TRANSMISSÃO DE ENERGIA ELÉTRICA S.A.                  ", "DTPREVISTA": null, "STR_DTPREVISTA": null, "DTENTRADA": 949795200000.0, "STR_DTENTRADA": "06/02/2000" }, "geometry": { "type": "Point", "coordinates": [ -38.967222205999974, -12.287361003607121 ] } },
{ "type": "Feature", "properties": { "OBJECTID": 133, "INS_ID": "BATXF ", "NOMELONGO": "SUB TEIXEIRA DE FREITAS II                         BA       ", "AGE_ID_PRIN": "CHF", "AGE_PRIN_NOM": "CHESF - Companhia Hidro Elétrica do São Francisco              ", "DTPREVISTA": 1556582400000.0, "STR_DTPREVISTA": "30/04/2019", "DTENTRADA": 1554076800000.0, "STR_DTENTRADA": "01/04/2019" }, "geometry": { "type": "Point", "coordinates": [ -39.730498305999959, -17.570299103456311 ] } },
{ "type": "Feature", "properties": { "OBJECTID": 134, "INS_ID": "BAUBN ", "NOMELONGO": "SUB UMBURANAS                                      BA       ", "AGE_ID_PRIN": "UB1", "AGE_PRIN_NOM": "EÓLICA UMBURANAS 1 S.A.                                        ", "DTPREVISTA": 1543536000000.0, "STR_DTPREVISTA": "30/11/2018", "DTENTRADA": 1546560000000.0, "STR_DTENTRADA": "04/01/2019" }, "geometry": { "type": "Point", "coordinates": [ -41.568600006, -10.67080000065617 ] } },
{ "type": "Feature", "properties": { "OBJECTID": 135, "INS_ID": "BAUITP", "NOMELONGO": "SUB ITAPEBI SE                                     BA       ", "AGE_ID_PRIN": "CHF", "AGE_PRIN_NOM": "CHESF - Companhia Hidro Elétrica do São Francisco              ", "DTPREVISTA": 1041379200000.0, "STR_DTPREVISTA": "01/01/2003", "DTENTRADA": 1043971200000.0, "STR_DTENTRADA": "31/01/2003" }, "geometry": { "type": "Point", "coordinates": [ -39.584745618, -15.969236025500281 ] } },
{ "type": "Feature", "properties": { "OBJECTID": 136, "INS_ID": "BAUMB ", "NOMELONGO": "SUB UMBUZEIRO                                      BA       ", "AGE_ID_PRIN": "BZZ", "AGE_PRIN_NOM": "Centrais Eólicas Umbuzeiro S.A.                                ", "DTPREVISTA": 1467331200000.0, "STR_DTPREVISTA": "01/07/2016", "DTENTRADA": null, "STR_DTENTRADA": null }, "geometry": { "type": "Point", "coordinates": [ -42.672094002, -14.008950002556256 ] } },
{ "type": "Feature", "properties": { "OBJECTID": 137, "INS_ID": "BAVB2 ", "NOMELONGO": "SUB VENTOS DA BAHIA II                             BA       ", "AGE_ID_PRIN": "VB1", "AGE_PRIN_NOM": "Parque Eólico Ventos da Bahia I                                ", "DTPREVISTA": 1525046400000.0, "STR_DTPREVISTA": "30/04/2018", "DTENTRADA": 1536278400000.0, "STR_DTENTRADA": "07/09/2018" }, "geometry": { "type": "Point", "coordinates": [ -41.490600004999976, -11.981400005616328 ] } },
{ "type": "Feature", "properties": { "OBJECTID": 138, "INS_ID": "BAVCC ", "NOMELONGO": "SUB VERACEL                                        BA       ", "AGE_ID_PRIN": "VEL", "AGE_PRIN_NOM": "Veracel Celulose                                               ", "DTPREVISTA": 1159574400000.0, "STR_DTPREVISTA": "30/09/2006", "DTENTRADA": 1073606400000.0, "STR_DTENTRADA": "09/01/2004" }, "geometry": { "type": "Point", "coordinates": [ -39.406111001999989, -16.083333000497095 ] } },
{ "type": "Feature", "properties": { "OBJECTID": 139, "INS_ID": "BAZBU ", "NOMELONGO": "SUB ZEBU                                           AL       ", "AGE_ID_PRIN": "CHF", "AGE_PRIN_NOM": "CHESF - Companhia Hidro Elétrica do São Francisco              ", "DTPREVISTA": 1345075200000.0, "STR_DTPREVISTA": "16/08/2012", "DTENTRADA": 959904000000.0, "STR_DTENTRADA": "02/06/2000" }, "geometry": { "type": "Point", "coordinates": [ -38.202778003999981, -9.355833001696922 ] } },
{ "type": "Feature", "properties": { "OBJECTID": 140, "INS_ID": "CEACT ", "NOMELONGO": "SUB ARACATI III                                    CE       ", "AGE_ID_PRIN": null, "AGE_PRIN_NOM": null, "DTPREVISTA": 1672444800000.0, "STR_DTPREVISTA": "31/12/2022", "DTENTRADA": null, "STR_DTENTRADA": null }, "geometry": { "type": "Point", "coordinates": [ -37.818697005999979, -4.470939002853104 ] } },
{ "type": "Feature", "properties": { "OBJECTID": 141, "INS_ID": "CEAQR ", "NOMELONGO": "SUB AQUIRAZ II                                     CE       ", "AGE_ID_PRIN": "CHF", "AGE_PRIN_NOM": "CHESF - Companhia Hidro Elétrica do São Francisco              ", "DTPREVISTA": 1388361600000.0, "STR_DTPREVISTA": "30/12/2013", "DTENTRADA": 1386720000000.0, "STR_DTENTRADA": "11/12/2013" }, "geometry": { "type": "Point", "coordinates": [ -38.388489, -3.919080905871135 ] } },
{ "type": "Feature", "properties": { "OBJECTID": 142, "INS_ID": "CEARC2", "NOMELONGO": "SUB ARACATI II                                     CE       ", "AGE_ID_PRIN": "ERE", "AGE_PRIN_NOM": "CPFL ENERGIAS RENOVAVEIS S.A.                                  ", "DTPREVISTA": 1262131200000.0, "STR_DTPREVISTA": "30/12/2009", "DTENTRADA": 1264464000000.0, "STR_DTENTRADA": "26/01/2010" }, "geometry": { "type": "Point", "coordinates": [ -37.763092003999986, -4.488019004852543 ] } },
{ "type": "Feature", "properties": { "OBJECTID": 143, "INS_ID": "CEAUD ", "NOMELONGO": "SUB ACARAU II                                      CE       ", "AGE_ID_PRIN": "CHF", "AGE_PRIN_NOM": "CHESF - Companhia Hidro Elétrica do São Francisco              ", "DTPREVISTA": 1272585600000.0, "STR_DTPREVISTA": "30/04/2010", "DTENTRADA": 1274832000000.0, "STR_DTENTRADA": "26/05/2010" }, "geometry": { "type": "Point", "coordinates": [ -40.116361006999959, -2.929778001903521 ] } },
{ "type": "Feature", "properties": { "OBJECTID": 144, "INS_ID": "CEAUT ", "NOMELONGO": "SUB ACARAU III                                     CE       ", "AGE_ID_PRIN": "899", "AGE_PRIN_NOM": "ARGO TRANSMISSÃO DE ENERGIA S.A.                               ", "DTPREVISTA": 1561593600000.0, "STR_DTPREVISTA": "27/06/2019", "DTENTRADA": 1567814400000.0, "STR_DTENTRADA": "07/09/2019" }, "geometry": { "type": "Point", "coordinates": [ -40.111633002999952, -2.928047000903585 ] } },
{ "type": "Feature", "properties": { "OBJECTID": 145, "INS_ID": "CEBNB ", "NOMELONGO": "SUB BANABUIU                                       CE       ", "AGE_ID_PRIN": "CHF", "AGE_PRIN_NOM": "CHESF - Companhia Hidro Elétrica do São Francisco              ", "DTPREVISTA": null, "STR_DTPREVISTA": null, "DTENTRADA": 959904000000.0, "STR_DTENTRADA": "02/06/2000" }, "geometry": { "type": "Point", "coordinates": [ -38.91277780399998, -5.305250003825994 ] } },
{ "type": "Feature", "properties": { "OBJECTID": 146, "INS_ID": "CECAL ", "NOMELONGO": "SUB CALCARIO                                       CE       ", "AGE_ID_PRIN": "API", "AGE_PRIN_NOM": "APODI I ENERGIA SPE S/A                                        ", "DTPREVISTA": 1530316800000.0, "STR_DTPREVISTA": "30/06/2018", "DTENTRADA": 1543363200000.0, "STR_DTENTRADA": "28/11/2018" }, "geometry": { "type": "Point", "coordinates": [ -37.785000004, -5.034700005834794 ] } },
{ "type": "Feature", "properties": { "OBJECTID": 147, "INS_ID": "CECBS ", "NOMELONGO": "SUB CACIMBAS                                       CE       ", "AGE_ID_PRIN": "BVC", "AGE_PRIN_NOM": "GERADORA EOLICA BONS VENTOS DA SERRA 2 S.A.                    ", "DTPREVISTA": 1514592000000.0, "STR_DTPREVISTA": "30/12/2017", "DTENTRADA": 1525910400000.0, "STR_DTENTRADA": "10/05/2018" }, "geometry": { "type": "Point", "coordinates": [ -41.042783006999969, -3.906111001871566 ] } },
{ "type": "Feature", "properties": { "OBJECTID": 148, "INS_ID": "CECPE ", "NOMELONGO": "SUB CAUIPE                                         CE       ", "AGE_ID_PRIN": "CHF", "AGE_PRIN_NOM": "CHESF - Companhia Hidro Elétrica do São Francisco              ", "DTPREVISTA": null, "STR_DTPREVISTA": null, "DTENTRADA": 959904000000.0, "STR_DTENTRADA": "02/06/2000" }, "geometry": { "type": "Point", "coordinates": [ -38.871667004999949, -3.697500004878387 ] } },
{ "type": "Feature", "properties": { "OBJECTID": 149, "INS_ID": "CECRA2", "NOMELONGO": "SUB CRATO II                                       CE       ", "AGE_ID_PRIN": "DP2", "AGE_PRIN_NOM": "DOM PEDRO II TRANSMISSORA DE ENERGIA SPE LTDA.                 ", "DTPREVISTA": 1695168000000.0, "STR_DTPREVISTA": "20/09/2023", "DTENTRADA": null, "STR_DTENTRADA": null }, "geometry": { "type": "Point", "coordinates": [ -39.411944404, -7.200555503764998 ] } },
{ "type": "Feature", "properties": { "OBJECTID": 150, "INS_ID": "CEDM2 ", "NOMELONGO": "SUB DIAS MACEDO II                                 CE       ", "AGE_ID_PRIN": "BR4", "AGE_PRIN_NOM": "BRE 4 IMPLANTAÇÃO DE SISTEMAS DE TRANSMISSÃO ELÉTRICA SOCIEDADE", "DTPREVISTA": 1774915200000.0, "STR_DTPREVISTA": "31/03/2026", "DTENTRADA": null, "STR_DTENTRADA": null }, "geometry": { "type": "Point", "coordinates": [ -38.516944400999989, -3.788333303875419 ] } },
{ "type": "Feature", "properties": { "OBJECTID": 151, "INS_ID": "CEDMG ", "NOMELONGO": "SUB DELMIRO  GOUVEIA                               CE       ", "AGE_ID_PRIN": "CHF", "AGE_PRIN_NOM": "CHESF - Companhia Hidro Elétrica do São Francisco              ", "DTPREVISTA": null, "STR_DTPREVISTA": null, "DTENTRADA": 959904000000.0, "STR_DTENTRADA": "02/06/2000" }, "geometry": { "type": "Point", "coordinates": [ -38.516666703, -3.792750000875284 ] } },
{ "type": "Feature", "properties": { "OBJECTID": 152, "INS_ID": "CEFSA ", "NOMELONGO": "SUB FAISA                                          CE       ", "AGE_ID_PRIN": "FAI", "AGE_PRIN_NOM": "Eólica Faísa I  Geração e Comercialização de Energia SA        ", "DTPREVISTA": 1401494400000.0, "STR_DTPREVISTA": "31/05/2014", "DTENTRADA": 1396051200000.0, "STR_DTENTRADA": "29/03/2014" }, "geometry": { "type": "Point", "coordinates": [ -39.26042300499995, -3.341129004890028 ] } },
{ "type": "Feature", "properties": { "OBJECTID": 153, "INS_ID": "CEFTZ ", "NOMELONGO": "SUB FORTALEZA                                      CE       ", "AGE_ID_PRIN": "CHF", "AGE_PRIN_NOM": "CHESF - Companhia Hidro Elétrica do São Francisco              ", "DTPREVISTA": null, "STR_DTPREVISTA": null, "DTENTRADA": 959904000000.0, "STR_DTENTRADA": "02/06/2000" }, "geometry": { "type": "Point", "coordinates": [ -38.521388903, -3.802472203874935 ] } },
{ "type": "Feature", "properties": { "OBJECTID": 154, "INS_ID": "CEFZD ", "NOMELONGO": "SUB FORTALEZA II                                   CE       ", "AGE_ID_PRIN": "CHF", "AGE_PRIN_NOM": "CHESF - Companhia Hidro Elétrica do São Francisco              ", "DTPREVISTA": null, "STR_DTPREVISTA": null, "DTENTRADA": 959904000000.0, "STR_DTENTRADA": "02/06/2000" }, "geometry": { "type": "Point", "coordinates": [ -38.521381706, -3.805444404874872 ] } },
{ "type": "Feature", "properties": { "OBJECTID": 155, "INS_ID": "CEIBD ", "NOMELONGO": "SUB IBIAPINA II                                    CE       ", "AGE_ID_PRIN": "CHF", "AGE_PRIN_NOM": "CHESF - Companhia Hidro Elétrica do São Francisco              ", "DTPREVISTA": 1472515200000.0, "STR_DTPREVISTA": "30/08/2016", "DTENTRADA": 1473638400000.0, "STR_DTENTRADA": "12/09/2016" }, "geometry": { "type": "Point", "coordinates": [ -41.191666006999974, -3.896953999871869 ] } },
{ "type": "Feature", "properties": { "OBJECTID": 156, "INS_ID": "CEICO ", "NOMELONGO": "SUB ICO                                            CE       ", "AGE_ID_PRIN": "CHF", "AGE_PRIN_NOM": "CHESF - Companhia Hidro Elétrica do São Francisco              ", "DTPREVISTA": null, "STR_DTPREVISTA": null, "DTENTRADA": 959904000000.0, "STR_DTENTRADA": "02/06/2000" }, "geometry": { "type": "Point", "coordinates": [ -38.867777801999978, -6.41025000079031 ] } },
{ "type": "Feature", "properties": { "OBJECTID": 157, "INS_ID": "CEITC ", "NOMELONGO": "SUB ITAREMA V                                      CE       ", "AGE_ID_PRIN": "TA5", "AGE_PRIN_NOM": "EOLICA ITAREMA V S.A.                                          ", "DTPREVISTA": 1490918400000.0, "STR_DTPREVISTA": "31/03/2017", "DTENTRADA": 1451606400000.0, "STR_DTENTRADA": "01/01/2016" }, "geometry": { "type": "Point", "coordinates": [ -39.889444000999958, -2.965278006902373 ] } },
{ "type": "Feature", "properties": { "OBJECTID": 158, "INS_ID": "CEJGII", "NOMELONGO": "SUB JAGUARUANA II                                  CE       ", "AGE_ID_PRIN": "DTE", "AGE_PRIN_NOM": " DUNAS TRANSMISSÃO DE ENERGIA S.A.                             ", "DTPREVISTA": 1695254400000.0, "STR_DTPREVISTA": "21/09/2023", "DTENTRADA": 1715731200000.0, "STR_DTENTRADA": "15/05/2024" }, "geometry": { "type": "Point", "coordinates": [ -37.712989501999971, -4.947946503837583 ] } },
{ "type": "Feature", "properties": { "OBJECTID": 159, "INS_ID": "CEMAU ", "NOMELONGO": "SUB MARACANAU II                                   CE       ", "AGE_ID_PRIN": "NAU", "AGE_PRIN_NOM": "CPFL TRANSMISSÃO DE ENERGIA MARACANAÚ LTDA.                    ", "DTPREVISTA": 1647820800000.0, "STR_DTPREVISTA": "21/03/2022", "DTENTRADA": 1651363200000.0, "STR_DTENTRADA": "01/05/2022" }, "geometry": { "type": "Point", "coordinates": [ -38.657989002999955, -3.863936006872902 ] } },
{ "type": "Feature", "properties": { "OBJECTID": 160, "INS_ID": "CEMLD ", "NOMELONGO": "SUB MILAGRES II                                    CE       ", "AGE_ID_PRIN": "GST", "AGE_PRIN_NOM": "GIOVANNI SANGUINETTI TRANSMISSORA DE ENERGIA S.A.              ", "DTPREVISTA": 1584230400000.0, "STR_DTPREVISTA": "15/03/2020", "DTENTRADA": 1586563200000.0, "STR_DTENTRADA": "11/04/2020" }, "geometry": { "type": "Point", "coordinates": [ -38.926549003, -7.343106001760436 ] } },
{ "type": "Feature", "properties": { "OBJECTID": 161, "INS_ID": "CEMLG ", "NOMELONGO": "SUB MILAGRES                                       CE       ", "AGE_ID_PRIN": "CHF", "AGE_PRIN_NOM": "CHESF - Companhia Hidro Elétrica do São Francisco              ", "DTPREVISTA": null, "STR_DTPREVISTA": null, "DTENTRADA": 949795200000.0, "STR_DTENTRADA": "06/02/2000" }, "geometry": { "type": "Point", "coordinates": [ -38.938333005, -7.306666999761585 ] } },
{ "type": "Feature", "properties": { "OBJECTID": 162, "INS_ID": "CEMPD ", "NOMELONGO": "SUB MASSAPE II                                     CE       ", "AGE_ID_PRIN": "FSA", "AGE_PRIN_NOM": "EÓLICA FORMOSA LTDA                                            ", "DTPREVISTA": 1248912000000.0, "STR_DTPREVISTA": "30/07/2009", "DTENTRADA": 1251244800000.0, "STR_DTENTRADA": "26/08/2009" }, "geometry": { "type": "Point", "coordinates": [ -40.326822005, -3.58889400188191 ] } },
{ "type": "Feature", "properties": { "OBJECTID": 163, "INS_ID": "CEPCD ", "NOMELONGO": "SUB PICI II                                        CE       ", "AGE_ID_PRIN": "CHF", "AGE_PRIN_NOM": "CHESF - Companhia Hidro Elétrica do São Francisco              ", "DTPREVISTA": 1113609600000.0, "STR_DTPREVISTA": "16/04/2005", "DTENTRADA": 1115251200000.0, "STR_DTENTRADA": "05/05/2005" }, "geometry": { "type": "Point", "coordinates": [ -38.582777805999967, -3.744444399876822 ] } },
{ "type": "Feature", "properties": { "OBJECTID": 164, "INS_ID": "CEPCE ", "NOMELONGO": "SUB PECEM II                                       CE       ", "AGE_ID_PRIN": "CHF", "AGE_PRIN_NOM": "CHESF - Companhia Hidro Elétrica do São Francisco              ", "DTPREVISTA": 1383091200000.0, "STR_DTPREVISTA": "30/10/2013", "DTENTRADA": 1381017600000.0, "STR_DTENTRADA": "06/10/2013" }, "geometry": { "type": "Point", "coordinates": [ -38.876806005999981, -3.595478005881685 ] } },
{ "type": "Feature", "properties": { "OBJECTID": 165, "INS_ID": "CEPCM ", "NOMELONGO": "SUB ENERGIA PECEM                                  CE       ", "AGE_ID_PRIN": "PPG", "AGE_PRIN_NOM": "Porto Pecem Geracao de Energia SA                              ", "DTPREVISTA": 1322611200000.0, "STR_DTPREVISTA": "30/11/2011", "DTENTRADA": 1292544000000.0, "STR_DTENTRADA": "17/12/2010" }, "geometry": { "type": "Point", "coordinates": [ -38.872631005999949, -3.582036003882148 ] } },
{ "type": "Feature", "properties": { "OBJECTID": 166, "INS_ID": "CEPCT ", "NOMELONGO": "SUB PACATUBA                                       CE       ", "AGE_ID_PRIN": "DTE", "AGE_PRIN_NOM": " DUNAS TRANSMISSÃO DE ENERGIA S.A.                             ", "DTPREVISTA": 1726704000000.0, "STR_DTPREVISTA": "19/09/2024", "DTENTRADA": 1729036800000.0, "STR_DTENTRADA": "16/10/2024" }, "geometry": { "type": "Point", "coordinates": [ -38.549093901999981, -3.88712210187217 ] } },
{ "type": "Feature", "properties": { "OBJECTID": 167, "INS_ID": "CEPPG ", "NOMELONGO": "SUB PAPAGAIO                                       CE       ", "AGE_ID_PRIN": "BUR", "AGE_PRIN_NOM": "Nova Eólica Buriti SA                                          ", "DTPREVISTA": 1377907200000.0, "STR_DTPREVISTA": "31/08/2013", "DTENTRADA": 1395360000000.0, "STR_DTENTRADA": "21/03/2014" }, "geometry": { "type": "Point", "coordinates": [ -39.994861007, -2.884306005905009 ] } },
{ "type": "Feature", "properties": { "OBJECTID": 168, "INS_ID": "CEQXA ", "NOMELONGO": "SUB QUIXADA                                        CE       ", "AGE_ID_PRIN": "CHF", "AGE_PRIN_NOM": "CHESF - Companhia Hidro Elétrica do São Francisco              ", "DTPREVISTA": 1007164800000.0, "STR_DTPREVISTA": "01/12/2001", "DTENTRADA": 1059609600000.0, "STR_DTENTRADA": "31/07/2003" }, "geometry": { "type": "Point", "coordinates": [ -38.927778005999976, -4.952500000837458 ] } },
{ "type": "Feature", "properties": { "OBJECTID": 169, "INS_ID": "CEQXR ", "NOMELONGO": "SUB QUIXERE                                        CE       ", "AGE_ID_PRIN": "CHF", "AGE_PRIN_NOM": "CHESF - Companhia Hidro Elétrica do São Francisco              ", "DTPREVISTA": 1401494400000.0, "STR_DTPREVISTA": "31/05/2014", "DTENTRADA": 1415750400000.0, "STR_DTENTRADA": "12/11/2014" }, "geometry": { "type": "Point", "coordinates": [ -37.785438000999989, -5.035035006834776 ] } },
{ "type": "Feature", "properties": { "OBJECTID": 170, "INS_ID": "CERSD ", "NOMELONGO": "SUB RUSSAS II                                      CE       ", "AGE_ID_PRIN": "CHF", "AGE_PRIN_NOM": "CHESF - Companhia Hidro Elétrica do São Francisco              ", "DTPREVISTA": null, "STR_DTPREVISTA": null, "DTENTRADA": 959904000000.0, "STR_DTENTRADA": "02/06/2000" }, "geometry": { "type": "Point", "coordinates": [ -37.988888903999964, -4.933861106838073 ] } },
{ "type": "Feature", "properties": { "OBJECTID": 171, "INS_ID": "CESBD ", "NOMELONGO": "SUB SOBRAL II                                      CE       ", "AGE_ID_PRIN": "CHF", "AGE_PRIN_NOM": "CHESF - Companhia Hidro Elétrica do São Francisco              ", "DTPREVISTA": null, "STR_DTPREVISTA": null, "DTENTRADA": 959904000000.0, "STR_DTENTRADA": "02/06/2000" }, "geometry": { "type": "Point", "coordinates": [ -40.382572002999957, -3.699822000878293 ] } },
{ "type": "Feature", "properties": { "OBJECTID": 172, "INS_ID": "CESBT ", "NOMELONGO": "SUB SOBRAL III                                     CE       ", "AGE_ID_PRIN": "CHF", "AGE_PRIN_NOM": "CHESF - Companhia Hidro Elétrica do São Francisco              ", "DTPREVISTA": null, "STR_DTPREVISTA": null, "DTENTRADA": 959904000000.0, "STR_DTENTRADA": "02/06/2000" }, "geometry": { "type": "Point", "coordinates": [ -40.300463005999973, -3.690358005878626 ] } },
{ "type": "Feature", "properties": { "OBJECTID": 173, "INS_ID": "CESDF ", "NOMELONGO": "SUB SOL DO FUTURO                                  CE       ", "AGE_ID_PRIN": "SO1", "AGE_PRIN_NOM": "CENTRAL FOTOVOLTAICA SOL DO FUTURO I S.A.                      ", "DTPREVISTA": 1540944000000.0, "STR_DTPREVISTA": "31/10/2018", "DTENTRADA": 1551484800000.0, "STR_DTENTRADA": "02/03/2019" }, "geometry": { "type": "Point", "coordinates": [ -38.393900006999957, -3.978100001869185 ] } },
{ "type": "Feature", "properties": { "OBJECTID": 174, "INS_ID": "CESEIC", "NOMELONGO": "SUB ICARAI                                         CE       ", "AGE_ID_PRIN": "ICC", "AGE_PRIN_NOM": "Central Geradora Eólica Icaraí I SA                            ", "DTPREVISTA": 1393545600000.0, "STR_DTPREVISTA": "28/02/2014", "DTENTRADA": 1396051200000.0, "STR_DTENTRADA": "29/03/2014" }, "geometry": { "type": "Point", "coordinates": [ -39.601742006999984, -3.09593400389805 ] } },
{ "type": "Feature", "properties": { "OBJECTID": 175, "INS_ID": "CESRL ", "NOMELONGO": "SUB SANTA ROSALIA                                  CE       ", "AGE_ID_PRIN": "NVM", "AGE_PRIN_NOM": "Nova Ventos do Morro do Chapeú Energias Renováveis SA          ", "DTPREVISTA": 1477872000000.0, "STR_DTPREVISTA": "31/10/2016", "DTENTRADA": 1475020800000.0, "STR_DTENTRADA": "28/09/2016" }, "geometry": { "type": "Point", "coordinates": [ -41.182350001999971, -3.869250006872732 ] } },
{ "type": "Feature", "properties": { "OBJECTID": 176, "INS_ID": "CETAA ", "NOMELONGO": "SUB TAUA II                                        CE       ", "AGE_ID_PRIN": "CHF", "AGE_PRIN_NOM": "CHESF - Companhia Hidro Elétrica do São Francisco              ", "DTPREVISTA": 1197417600000.0, "STR_DTPREVISTA": "12/12/2007", "DTENTRADA": 1198800000000.0, "STR_DTENTRADA": "28/12/2007" }, "geometry": { "type": "Point", "coordinates": [ -40.275833300999977, -6.002111106803465 ] } },
{ "type": "Feature", "properties": { "OBJECTID": 177, "INS_ID": "CETBA ", "NOMELONGO": "SUB TAIBA                                          CE       ", "AGE_ID_PRIN": "ETG", "AGE_PRIN_NOM": "Central Geradora Eólica Taíba Águia SA                         ", "DTPREVISTA": 1404086400000.0, "STR_DTPREVISTA": "30/06/2014", "DTENTRADA": 1403136000000.0, "STR_DTENTRADA": "19/06/2014" }, "geometry": { "type": "Point", "coordinates": [ -38.888802006999981, -3.546260006883346 ] } },
{ "type": "Feature", "properties": { "OBJECTID": 178, "INS_ID": "CETIA ", "NOMELONGO": "SUB TIANGUA II                                     CE       ", "AGE_ID_PRIN": "899", "AGE_PRIN_NOM": "ARGO TRANSMISSÃO DE ENERGIA S.A.                               ", "DTPREVISTA": 1561593600000.0, "STR_DTPREVISTA": "27/06/2019", "DTENTRADA": 1568764800000.0, "STR_DTENTRADA": "18/09/2019" }, "geometry": { "type": "Point", "coordinates": [ -41.012286, -3.773086003875918 ] } },
{ "type": "Feature", "properties": { "OBJECTID": 179, "INS_ID": "CETRA ", "NOMELONGO": "SUB TRAIRI                                         CE       ", "AGE_ID_PRIN": "ATI", "AGE_PRIN_NOM": "Central Eólica Trairí SA                                       ", "DTPREVISTA": 1385769600000.0, "STR_DTPREVISTA": "30/11/2013", "DTENTRADA": 1385078400000.0, "STR_DTENTRADA": "22/11/2013" }, "geometry": { "type": "Point", "coordinates": [ -39.29624400299997, -3.242560006893238 ] } },
{ "type": "Feature", "properties": { "OBJECTID": 180, "INS_ID": "DFBRN ", "NOMELONGO": "SUB BRASILIA  NORTE                                DF       ", "AGE_ID_PRIN": "CED", "AGE_PRIN_NOM": "NEOENERGIA DISTRIBUICAO BRASILIA S.A.                          ", "DTPREVISTA": null, "STR_DTPREVISTA": null, "DTENTRADA": 959904000000.0, "STR_DTENTRADA": "02/06/2000" }, "geometry": { "type": "Point", "coordinates": [ -47.935039005999954, -15.750522002506408 ] } },
{ "type": "Feature", "properties": { "OBJECTID": 181, "INS_ID": "DFSTBG", "NOMELONGO": "SUB BRASILIA  GERAL                                DF       ", "AGE_ID_PRIN": "EBR", "AGE_PRIN_NOM": "CENTRAIS ELETRICAS BRASILEIRAS SA ELETROBRAS                   ", "DTPREVISTA": null, "STR_DTPREVISTA": null, "DTENTRADA": 959904000000.0, "STR_DTENTRADA": "02/06/2000" }, "geometry": { "type": "Point", "coordinates": [ -47.952159001999973, -15.812438003504706 ] } },
{ "type": "Feature", "properties": { "OBJECTID": 182, "INS_ID": "DFSTBL", "NOMELONGO": "SUB BRASILIA LESTE                                 DF       ", "AGE_ID_PRIN": "BAR", "AGE_PRIN_NOM": "VALE DO SAO BARTOLOMEU TRANSMISSORA DE ENERGIA S.A.            ", "DTPREVISTA": 1506729600000.0, "STR_DTPREVISTA": "30/09/2017", "DTENTRADA": 1518912000000.0, "STR_DTENTRADA": "18/02/2018" }, "geometry": { "type": "Point", "coordinates": [ -47.708739004999984, -15.807434901504802 ] } },
{ "type": "Feature", "properties": { "OBJECTID": 183, "INS_ID": "DFSTBS", "NOMELONGO": "SUB BRASILIA  SUL                                  DF       ", "AGE_ID_PRIN": "EBR", "AGE_PRIN_NOM": "CENTRAIS ELETRICAS BRASILEIRAS SA ELETROBRAS                   ", "DTPREVISTA": null, "STR_DTPREVISTA": null, "DTENTRADA": 959904000000.0, "STR_DTENTRADA": "02/06/2000" }, "geometry": { "type": "Point", "coordinates": [ -48.068475000999968, -15.862817004503251 ] } },
{ "type": "Feature", "properties": { "OBJECTID": 184, "INS_ID": "DFSTSB", "NOMELONGO": "SUB SAMAMBAIA                                      DF       ", "AGE_ID_PRIN": "EBR", "AGE_PRIN_NOM": "CENTRAIS ELETRICAS BRASILEIRAS SA ELETROBRAS                   ", "DTPREVISTA": null, "STR_DTPREVISTA": null, "DTENTRADA": 959904000000.0, "STR_DTENTRADA": "02/06/2000" }, "geometry": { "type": "Point", "coordinates": [ -48.171835004999984, -15.923319004501591 ] } },
{ "type": "Feature", "properties": { "OBJECTID": 185, "INS_ID": "ESLNR ", "NOMELONGO": "SUB LINHARES                                       ES       ", "AGE_ID_PRIN": "EBR", "AGE_PRIN_NOM": "CENTRAIS ELETRICAS BRASILEIRAS SA ELETROBRAS                   ", "DTPREVISTA": 1530403200000.0, "STR_DTPREVISTA": "01/07/2018", "DTENTRADA": 1531785600000.0, "STR_DTENTRADA": "17/07/2018" }, "geometry": { "type": "Point", "coordinates": [ -40.105536005999973, -19.40194100140814 ] } },
{ "type": "Feature", "properties": { "OBJECTID": 186, "INS_ID": "ESSECI", "NOMELONGO": "SUB CACHOEIRO DO ITAPEMIRIM                        ES       ", "AGE_ID_PRIN": "ESC", "AGE_PRIN_NOM": "EDP ESPIRITO SANTO DISTRIBUICAO DE ENERGIA S.A.                ", "DTPREVISTA": null, "STR_DTPREVISTA": null, "DTENTRADA": 959904000000.0, "STR_DTENTRADA": "02/06/2000" }, "geometry": { "type": "Point", "coordinates": [ -41.090000004, -20.847500004371778 ] } },
{ "type": "Feature", "properties": { "OBJECTID": 187, "INS_ID": "ESSEMA", "NOMELONGO": "SUB MASCARENHAS                                    ES       ", "AGE_ID_PRIN": "ECY", "AGE_PRIN_NOM": "INTERLIGAÇÃO ELÉTRICA EVRECY S.A.                              ", "DTPREVISTA": null, "STR_DTPREVISTA": null, "DTENTRADA": 1163462400000.0, "STR_DTENTRADA": "14/11/2006" }, "geometry": { "type": "Point", "coordinates": [ -40.914071805999981, -19.50996300540535 ] } },
{ "type": "Feature", "properties": { "OBJECTID": 188, "INS_ID": "ESSJND", "NOMELONGO": "SUB JOAO NEIVA 2                                   ES       ", "AGE_ID_PRIN": "IEI", "AGE_PRIN_NOM": "INTERLIGAÇÃO ELÉTRICA ITAÚNAS S.A.                             ", "DTPREVISTA": 1609286400000.0, "STR_DTPREVISTA": "30/12/2020", "DTENTRADA": 1677801600000.0, "STR_DTENTRADA": "03/03/2023" }, "geometry": { "type": "Point", "coordinates": [ -40.381111003, -19.765278004398834 ] } },
{ "type": "Feature", "properties": { "OBJECTID": 189, "INS_ID": "ESSRNS", "NOMELONGO": "SUB RIO NOVO DO SUL                                ES       ", "AGE_ID_PRIN": "CP9", "AGE_PRIN_NOM": "ETC - EMPRESA TRANSMISSORA CAPIXABA S.A.                       ", "DTPREVISTA": 1575072000000.0, "STR_DTPREVISTA": "30/11/2019", "DTENTRADA": 1566691200000.0, "STR_DTENTRADA": "25/08/2019" }, "geometry": { "type": "Point", "coordinates": [ -40.907756001, -20.885997004370843 ] } },
{ "type": "Feature", "properties": { "OBJECTID": 190, "INS_ID": "ESSSMD", "NOMELONGO": "SUB SAO MATEUS 2                                   ES       ", "AGE_ID_PRIN": "DPT", "AGE_PRIN_NOM": "HORIZON TRANSMISSÃO ES S.A.                                    ", "DTPREVISTA": 1596931200000.0, "STR_DTPREVISTA": "09/08/2020", "DTENTRADA": 1545523200000.0, "STR_DTENTRADA": "23/12/2018" }, "geometry": { "type": "Point", "coordinates": [ -39.888056002999974, -18.752778001424918 ] } },
{ "type": "Feature", "properties": { "OBJECTID": 191, "INS_ID": "ESSTAE", "NOMELONGO": "SUB VIANA                                          ES       ", "AGE_ID_PRIN": "EBR", "AGE_PRIN_NOM": "CENTRAIS ELETRICAS BRASILEIRAS SA ELETROBRAS                   ", "DTPREVISTA": 1134864000000.0, "STR_DTPREVISTA": "18/12/2005", "DTENTRADA": 1134950400000.0, "STR_DTENTRADA": "19/12/2005" }, "geometry": { "type": "Point", "coordinates": [ -40.42888900599997, -20.363333001383793 ] } },
{ "type": "Feature", "properties": { "OBJECTID": 192, "INS_ID": "ESSTAI", "NOMELONGO": "SUB ANCHIETA                                       ES       ", "AGE_ID_PRIN": null, "AGE_PRIN_NOM": null, "DTPREVISTA": 253392451200000.0, "STR_DTPREVISTA": "09/09/9999", "DTENTRADA": null, "STR_DTENTRADA": null }, "geometry": { "type": "Point", "coordinates": [ -40.650641001999986, -20.71794000237497 ] } },
{ "type": "Feature", "properties": { "OBJECTID": 193, "INS_ID": "ESSTVD", "NOMELONGO": "SUB VIANA 2                                        ES       ", "AGE_ID_PRIN": "MG1", "AGE_PRIN_NOM": "MGE TRANSMISSÃO S.A.                                           ", "DTPREVISTA": 1406764800000.0, "STR_DTPREVISTA": "31/07/2014", "DTENTRADA": 1407628800000.0, "STR_DTENTRADA": "10/08/2014" }, "geometry": { "type": "Point", "coordinates": [ -40.507269001999987, -20.381250999383319 ] } },
{ "type": "Feature", "properties": { "OBJECTID": 194, "INS_ID": "ESSTVE", "NOMELONGO": "SUB VERONA                                         ES       ", "AGE_ID_PRIN": "ESS", "AGE_PRIN_NOM": "EMPRESA DE TRANSMISSÃO DO ESPÍRITO SANTO S.A. – ETES           ", "DTPREVISTA": 1277769600000.0, "STR_DTPREVISTA": "29/06/2010", "DTENTRADA": 1278374400000.0, "STR_DTENTRADA": "06/07/2010" }, "geometry": { "type": "Point", "coordinates": [ -40.434444002999953, -18.740278005425271 ] } },
{ "type": "Feature", "properties": { "OBJECTID": 195, "INS_ID": "ESSTVT", "NOMELONGO": "SUB VITORIA                                        ES       ", "AGE_ID_PRIN": "EBR", "AGE_PRIN_NOM": "CENTRAIS ELETRICAS BRASILEIRAS SA ELETROBRAS                   ", "DTPREVISTA": null, "STR_DTPREVISTA": null, "DTENTRADA": 959904000000.0, "STR_DTENTRADA": "02/06/2000" }, "geometry": { "type": "Point", "coordinates": [ -40.294523000999959, -20.194191001388006 ] } },
{ "type": "Feature", "properties": { "OBJECTID": 196, "INS_ID": "GOALD ", "NOMELONGO": "SUB AGUAS LINDAS                                   GO       ", "AGE_ID_PRIN": "CLT", "AGE_PRIN_NOM": "EDP TRANSMISSÃO GOIÁS S.A.                                     ", "DTPREVISTA": null, "STR_DTPREVISTA": null, "DTENTRADA": 886896000000.0, "STR_DTENTRADA": "08/02/1998" }, "geometry": { "type": "Point", "coordinates": [ -48.275277800999959, -15.767777800505925 ] } },
{ "type": "Feature", "properties": { "OBJECTID": 197, "INS_ID": "GOANH ", "NOMELONGO": "SUB ANHANGUERA                                     GO       ", "AGE_ID_PRIN": "CLT", "AGE_PRIN_NOM": "EDP TRANSMISSÃO GOIÁS S.A.                                     ", "DTPREVISTA": null, "STR_DTPREVISTA": null, "DTENTRADA": 959904000000.0, "STR_DTENTRADA": "02/06/2000" }, "geometry": { "type": "Point", "coordinates": [ -49.236698001999976, -16.789400003477546 ] } },
{ "type": "Feature", "properties": { "OBJECTID": 198, "INS_ID": "GOBCO ", "NOMELONGO": "SUB BARRA DOS COQUEIROS                            GO       ", "AGE_ID_PRIN": "CQT", "AGE_PRIN_NOM": "COQUEIROS TRANSMISSORA DE ENERGIA S.A.                         ", "DTPREVISTA": 1263600000000.0, "STR_DTPREVISTA": "16/01/2010", "DTENTRADA": 1261267200000.0, "STR_DTENTRADA": "20/12/2009" }, "geometry": { "type": "Point", "coordinates": [ -51.0, -18.716667004425883 ] } },
{ "type": "Feature", "properties": { "OBJECTID": 199, "INS_ID": "GOCJA ", "NOMELONGO": "SUB CARAJAS CELG                                   GO       ", "AGE_ID_PRIN": "CLT", "AGE_PRIN_NOM": "EDP TRANSMISSÃO GOIÁS S.A.                                     ", "DTPREVISTA": 1231286400000.0, "STR_DTPREVISTA": "07/01/2009", "DTENTRADA": 1232841600000.0, "STR_DTENTRADA": "25/01/2009" }, "geometry": { "type": "Point", "coordinates": [ -49.348889000999982, -16.717373006479555 ] } },
{ "type": "Feature", "properties": { "OBJECTID": 200, "INS_ID": "GOCL2 ", "NOMELONGO": "SUB RIO CLARO 2                                    GO       ", "AGE_ID_PRIN": "TRC", "AGE_PRIN_NOM": "MEZ 3 ENERGIA S.A.                                             ", "DTPREVISTA": 1640822400000.0, "STR_DTPREVISTA": "30/12/2021", "DTENTRADA": 1712793600000.0, "STR_DTENTRADA": "11/04/2024" }, "geometry": { "type": "Point", "coordinates": [ -51.69153330499995, -17.644488900454338 ] } },
{ "type": "Feature", "properties": { "OBJECTID": 201, "INS_ID": "GOEDA ", "NOMELONGO": "SUB EDEIA                                          GO       ", "AGE_ID_PRIN": "TE1", "AGE_PRIN_NOM": "TRANSENERGIA RENOVÁVEL S.A.                                    ", "DTPREVISTA": 1330473600000.0, "STR_DTPREVISTA": "29/02/2012", "DTENTRADA": 1329004800000.0, "STR_DTENTRADA": "12/02/2012" }, "geometry": { "type": "Point", "coordinates": [ -49.922500007, -17.326111003462927 ] } },
{ "type": "Feature", "properties": { "OBJECTID": 202, "INS_ID": "GOFIR ", "NOMELONGO": "SUB FIRMINOPOLIS                                   GO       ", "AGE_ID_PRIN": "CLT", "AGE_PRIN_NOM": "EDP TRANSMISSÃO GOIÁS S.A.                                     ", "DTPREVISTA": null, "STR_DTPREVISTA": null, "DTENTRADA": 876528000000.0, "STR_DTENTRADA": "11/10/1997" }, "geometry": { "type": "Point", "coordinates": [ -50.328888900999978, -16.592500001482946 ] } },
{ "type": "Feature", "properties": { "OBJECTID": 203, "INS_ID": "GOGOL ", "NOMELONGO": "SUB GOIANIA LESTE                                  GO       ", "AGE_ID_PRIN": "CLT", "AGE_PRIN_NOM": "EDP TRANSMISSÃO GOIÁS S.A.                                     ", "DTPREVISTA": null, "STR_DTPREVISTA": null, "DTENTRADA": 959904000000.0, "STR_DTENTRADA": "02/06/2000" }, "geometry": { "type": "Point", "coordinates": [ -49.234998605999976, -16.683611102480466 ] } },
{ "type": "Feature", "properties": { "OBJECTID": 204, "INS_ID": "GOID  ", "NOMELONGO": "SUB RIO VERDE NORTE                                GO       ", "AGE_ID_PRIN": "ITB", "AGE_PRIN_NOM": "Itumbiara Transmissora de Energia S/A.                         ", "DTPREVISTA": 1164844800000.0, "STR_DTPREVISTA": "30/11/2006", "DTENTRADA": 1164844800000.0, "STR_DTENTRADA": "30/11/2006" }, "geometry": { "type": "Point", "coordinates": [ -50.863808006, -17.723131001452234 ] } },
{ "type": "Feature", "properties": { "OBJECTID": 205, "INS_ID": "GOIGU ", "NOMELONGO": "SUB ITAGUACU                                       GO       ", "AGE_ID_PRIN": "CQT", "AGE_PRIN_NOM": "COQUEIROS TRANSMISSORA DE ENERGIA S.A.                         ", "DTPREVISTA": 1263600000000.0, "STR_DTPREVISTA": "16/01/2010", "DTENTRADA": 1261267200000.0, "STR_DTENTRADA": "20/12/2009" }, "geometry": { "type": "Point", "coordinates": [ -50.693333, -19.007222004418303 ] } },
{ "type": "Feature", "properties": { "OBJECTID": 206, "INS_ID": "GOITP ", "NOMELONGO": "SUB ITAPACI                                        GO       ", "AGE_ID_PRIN": "CLT", "AGE_PRIN_NOM": "EDP TRANSMISSÃO GOIÁS S.A.                                     ", "DTPREVISTA": null, "STR_DTPREVISTA": null, "DTENTRADA": 959904000000.0, "STR_DTENTRADA": "02/06/2000" }, "geometry": { "type": "Point", "coordinates": [ -49.524166703, -14.942222200529345 ] } },
{ "type": "Feature", "properties": { "OBJECTID": 207, "INS_ID": "GOJAT ", "NOMELONGO": "SUB JATAI                                          GO       ", "AGE_ID_PRIN": "TE1", "AGE_PRIN_NOM": "TRANSENERGIA RENOVÁVEL S.A.                                    ", "DTPREVISTA": 1354320000000.0, "STR_DTPREVISTA": "01/12/2012", "DTENTRADA": 1355443200000.0, "STR_DTENTRADA": "14/12/2012" }, "geometry": { "type": "Point", "coordinates": [ -52.048611, -17.799166999450154 ] } },
{ "type": "Feature", "properties": { "OBJECTID": 208, "INS_ID": "GOLUZI", "NOMELONGO": "SUB LUZIANIA                                       GO       ", "AGE_ID_PRIN": "SMT", "AGE_PRIN_NOM": "Serra da Mesa Transmissora de Energia S/A.                     ", "DTPREVISTA": 1204243200000.0, "STR_DTPREVISTA": "29/02/2008", "DTENTRADA": 1203292800000.0, "STR_DTENTRADA": "18/02/2008" }, "geometry": { "type": "Point", "coordinates": [ -47.833333000999971, -16.338611006490027 ] } },
{ "type": "Feature", "properties": { "OBJECTID": 209, "INS_ID": "GOPAL ", "NOMELONGO": "SUB PALMEIRAS                                      GO       ", "AGE_ID_PRIN": "CLT", "AGE_PRIN_NOM": "EDP TRANSMISSÃO GOIÁS S.A.                                     ", "DTPREVISTA": null, "STR_DTPREVISTA": null, "DTENTRADA": 827280000000.0, "STR_DTENTRADA": "20/03/1996" }, "geometry": { "type": "Point", "coordinates": [ -49.943056002, -16.786111004477625 ] } },
{ "type": "Feature", "properties": { "OBJECTID": 210, "INS_ID": "GOPLA ", "NOMELONGO": "SUB PLANALTO                                       GO       ", "AGE_ID_PRIN": "CLT", "AGE_PRIN_NOM": "EDP TRANSMISSÃO GOIÁS S.A.                                     ", "DTPREVISTA": null, "STR_DTPREVISTA": null, "DTENTRADA": 959904000000.0, "STR_DTENTRADA": "02/06/2000" }, "geometry": { "type": "Point", "coordinates": [ -49.230555601, -17.812777802449794 ] } },
{ "type": "Feature", "properties": { "OBJECTID": 211, "INS_ID": "GOPRB ", "NOMELONGO": "SUB PARANAIBA                                      GO       ", "AGE_ID_PRIN": "CLT", "AGE_PRIN_NOM": "EDP TRANSMISSÃO GOIÁS S.A.                                     ", "DTPREVISTA": null, "STR_DTPREVISTA": null, "DTENTRADA": 959904000000.0, "STR_DTENTRADA": "02/06/2000" }, "geometry": { "type": "Point", "coordinates": [ -49.211666703, -18.371111102434959 ] } },
{ "type": "Feature", "properties": { "OBJECTID": 212, "INS_ID": "GOPRS ", "NOMELONGO": "SUB PIRINEUS CELG                                  GO       ", "AGE_ID_PRIN": "CLT", "AGE_PRIN_NOM": "EDP TRANSMISSÃO GOIÁS S.A.                                     ", "DTPREVISTA": 1159574400000.0, "STR_DTPREVISTA": "30/09/2006", "DTENTRADA": 1161129600000.0, "STR_DTENTRADA": "18/10/2006" }, "geometry": { "type": "Point", "coordinates": [ -48.866216703999953, -16.386558301488659 ] } },
{ "type": "Feature", "properties": { "OBJECTID": 213, "INS_ID": "GOQUI ", "NOMELONGO": "SUB QUIRINOPOLIS                                   GO       ", "AGE_ID_PRIN": "CLG", "AGE_PRIN_NOM": "EQUATORIAL GOIAS DISTRIBUIDORA DE ENERGIA S/A                  ", "DTPREVISTA": null, "STR_DTPREVISTA": null, "DTENTRADA": 959904000000.0, "STR_DTENTRADA": "02/06/2000" }, "geometry": { "type": "Point", "coordinates": [ -50.420601003, -18.440300002433165 ] } },
{ "type": "Feature", "properties": { "OBJECTID": 214, "INS_ID": "GOQUI2", "NOMELONGO": "SUB QUIRINOPOLIS 2                                 GO       ", "AGE_ID_PRIN": "TE1", "AGE_PRIN_NOM": "TRANSENERGIA RENOVÁVEL S.A.                                    ", "DTPREVISTA": 1304294400000.0, "STR_DTPREVISTA": "02/05/2011", "DTENTRADA": 1302998400000.0, "STR_DTENTRADA": "17/04/2011" }, "geometry": { "type": "Point", "coordinates": [ -50.578611000999956, -18.48527800243194 ] } },
{ "type": "Feature", "properties": { "OBJECTID": 215, "INS_ID": "GORCL ", "NOMELONGO": "SUB RIO CLARO                                      GO       ", "AGE_ID_PRIN": "CLG", "AGE_PRIN_NOM": "EQUATORIAL GOIAS DISTRIBUIDORA DE ENERGIA S/A                  ", "DTPREVISTA": null, "STR_DTPREVISTA": null, "DTENTRADA": 801792000000.0, "STR_DTENTRADA": "30/05/1995" }, "geometry": { "type": "Point", "coordinates": [ -51.691389001999987, -17.631667003454641 ] } },
{ "type": "Feature", "properties": { "OBJECTID": 216, "INS_ID": "GORVE ", "NOMELONGO": "SUB RIO VERDE (CELG)                               GO       ", "AGE_ID_PRIN": "CLG", "AGE_PRIN_NOM": "EQUATORIAL GOIAS DISTRIBUIDORA DE ENERGIA S/A                  ", "DTPREVISTA": null, "STR_DTPREVISTA": null, "DTENTRADA": 959904000000.0, "STR_DTENTRADA": "02/06/2000" }, "geometry": { "type": "Point", "coordinates": [ -50.883154005, -17.761231206451189 ] } },
{ "type": "Feature", "properties": { "OBJECTID": 217, "INS_ID": "GOSILN", "NOMELONGO": "SUB SILVANIA                                       GO       ", "AGE_ID_PRIN": "SVN", "AGE_PRIN_NOM": "SILVANIA TRANSMISSORA DE ENERGIA S.A.                          ", "DTPREVISTA": 1743379200000.0, "STR_DTPREVISTA": "31/03/2025", "DTENTRADA": 1702771200000.0, "STR_DTENTRADA": "17/12/2023" }, "geometry": { "type": "Point", "coordinates": [ -48.233055606, -16.59388890148297 ] } },
{ "type": "Feature", "properties": { "OBJECTID": 218, "INS_ID": "GOSME2", "NOMELONGO": "SUB SERRA DA MESA 2                                GO       ", "AGE_ID_PRIN": "ITT", "AGE_PRIN_NOM": "INTEGRAÇAO TRANSMISSORA DE ENERGIA S.A                         ", "DTPREVISTA": 1209254400000.0, "STR_DTPREVISTA": "27/04/2008", "DTENTRADA": 1203292800000.0, "STR_DTENTRADA": "18/02/2008" }, "geometry": { "type": "Point", "coordinates": [ -48.047778002999969, -13.764444000563353 ] } },
{ "type": "Feature", "properties": { "OBJECTID": 219, "INS_ID": "GOSTBD", "NOMELONGO": "SUB BANDEIRANTES                                   GO       ", "AGE_ID_PRIN": "EBR", "AGE_PRIN_NOM": "CENTRAIS ELETRICAS BRASILEIRAS SA ELETROBRAS                   ", "DTPREVISTA": null, "STR_DTPREVISTA": null, "DTENTRADA": 959904000000.0, "STR_DTENTRADA": "02/06/2000" }, "geometry": { "type": "Point", "coordinates": [ -49.233715004999965, -16.793335005477424 ] } },
{ "type": "Feature", "properties": { "OBJECTID": 220, "INS_ID": "GOSTBT", "NOMELONGO": "SUB BARRO ALTO                                     GO       ", "AGE_ID_PRIN": "EBR", "AGE_PRIN_NOM": "CENTRAIS ELETRICAS BRASILEIRAS SA ELETROBRAS                   ", "DTPREVISTA": null, "STR_DTPREVISTA": null, "DTENTRADA": 959904000000.0, "STR_DTENTRADA": "02/06/2000" }, "geometry": { "type": "Point", "coordinates": [ -48.92496400299995, -15.120271004524218 ] } },